{
"type": "FeatureCollection",
"features": [
{ "type": "Feature", "properties": { "add": "750 West Pender St, Vancouver, BC V6C 1G8", "city": "Vancouver", "country": "ca", "exchange": "TSX Venture", "name": "AbraPlata Resource Corp.", "region": null, "state": "British Columbia", "stock": "0.17 CDN ", "symbol": "AET-X" }, "geometry": { "type": "Point", "coordinates": [ -123.1158865, 49.284933 ] } },
{ "type": "Feature", "properties": { "add": "1111 Melville St, Vancouver, BC V6E 3V6", "city": "Vancouver", "country": "ca", "exchange": "TSX Venture", "name": "Adamera Minerals Corp.", "region": null, "state": "British Columbia", "stock": "0.03 CDN", "symbol": "ADZ" }, "geometry": { "type": "Point", "coordinates": [ -123.122136, 49.286786 ] } },
{ "type": "Feature", "properties": { "add": "65 Rodney Road, Cheltenham, GL50 1HX", "city": "Cheltenham", "country": "gb", "exchange": "London ", "name": "Adriatic Metals Plc", "region": "South West England", "state": "England", "stock": "88.00 GBX", "symbol": "ADT1 " }, "geometry": { "type": "Point", "coordinates": [ -2.074691, 51.898941 ] } },
{ "type": "Feature", "properties": { "add": "220 Bay St, Toronto, ON M5J 2W4", "city": "Toronto", "country": "ca", "exchange": "TSX Venture\/OTC", "name": "Adventus Mining Corporation", "region": null, "state": "Ontario", "stock": "0.93 CDN ", "symbol": "ADZN\/ADVZF" }, "geometry": { "type": "Point", "coordinates": [ -79.379954, 43.647552 ] } },
{ "type": "Feature", "properties": { "add": "520 Wickham St, Fortitude Valley, QLD 4006", "city": "Brisbane", "country": "au", "exchange": "Sydney (ASX)", "name": "Aeris Resources Limited", "region": null, "state": "Queensland", "stock": "0.05 AUS", "symbol": "AIS" }, "geometry": { "type": "Point", "coordinates": [ 153.0395618, -27.4517239 ] } },
{ "type": "Feature", "properties": { "add": "600-890 West Pender St, Vancouver, BC V6C 1J9", "city": "Vancouver", "country": "ca", "exchange": "TSX-Venture ", "name": "Affinity Metals Corp", "region": null, "state": "British Columbia", "stock": "0.19 CDN", "symbol": "AFF" }, "geometry": { "type": "Point", "coordinates": [ -123.116766, 49.285602 ] } },
{ "type": "Feature", "properties": { "add": "409 Granville St, Vancouver, BC V6C 1T2", "city": "Vancouver", "country": "ca", "exchange": "TSX-Venture\/OTCQB", "name": "Aftermath Silver Ltd", "region": null, "state": "British Columbia", "stock": "0.30 CDN", "symbol": "AAG\/AAGFF" }, "geometry": { "type": "Point", "coordinates": [ -123.1142912, 49.2853029 ] } },
{ "type": "Feature", "properties": { "add": "145 King St East, Toronto, ON M5C 2Y7", "city": "Toronto", "country": "ca", "exchange": "TSE", "name": "Agnico Eagle Mines Limited", "region": null, "state": "Ontario", "stock": "76.23 CDN", "symbol": "AEM" }, "geometry": { "type": "Point", "coordinates": [ -79.375944, 43.649579 ] } },
{ "type": "Feature", "properties": { "add": "17618 Ave, Surrey, BC V3S 1L3", "city": "Surrey", "country": "ca", "exchange": "CSEX\/ Frankfurt", "name": "AJN Resources Inc.", "region": null, "state": "British Columbia", "stock": "0.35 CDN ", "symbol": "AJN \/ 5AT" }, "geometry": { "type": "Point", "coordinates": [ -122.734687, 49.10765 ] } },
{ "type": "Feature", "properties": { "add": "7001 E. Belleview Ave, Denver, CO 80237", "city": "Greenwood Village", "country": "us", "exchange": "TSE", "name": "Alacer Gold Corp.", "region": null, "state": "Colorado", "stock": "6.33 CDN", "symbol": "ASR" }, "geometry": { "type": "Point", "coordinates": [ -104.9051306, 39.6242964 ] } },
{ "type": "Feature", "properties": { "add": "181 Bay St, Toronto, ON M5J 2T3", "city": "Toronto", "country": "ca", "exchange": "TSE\/NYSE", "name": "Alamos Gold Inc.", "region": null, "state": "Ontario", "stock": "7.13 CDN", "symbol": "AGI" }, "geometry": { "type": "Point", "coordinates": [ -79.3786735, 43.6465062 ] } },
{ "type": "Feature", "properties": { "add": "1177 West Hastings St, Vancouver, BC V6E 4T5", "city": "Vancouver", "country": "ca", "exchange": "TSX Venture", "name": "Aldebaran Resources Inc.", "region": null, "state": "British Columbia", "stock": "0.45 CDN ", "symbol": "ALDE" }, "geometry": { "type": "Point", "coordinates": [ -123.121766, 49.28876 ] } },
{ "type": "Feature", "properties": { "add": "555 Burrard St, Vancouver, BC V7X 1M8", "city": "Vancouver", "country": "ca", "exchange": "TSE\/NYSE", "name": "Alexco Resource Corp.", "region": null, "state": "British Columbia", "stock": "2.47 CDN ", "symbol": "AXU" }, "geometry": { "type": "Point", "coordinates": [ -123.118097, 49.286584 ] } },
{ "type": "Feature", "properties": { "add": "1333 Johnston St, Vancouver, BC V6H 3R9", "city": "Vancouver", "country": "ca", "exchange": "TSE\/NYSE", "name": "Almaden Minerals Ltd.", "region": null, "state": "British Columbia", "stock": "0.66 CDN ", "symbol": "AMM\/AAU " }, "geometry": { "type": "Point", "coordinates": [ -123.1349389, 49.2718673 ] } },
{ "type": "Feature", "properties": { "add": "409 Granville St, Vancouver, BC V6C 1T2", "city": "Vancouver", "country": "ca", "exchange": "TSX Venture\/Frankfurt\/US ", "name": "Altamira Gold", "region": null, "state": "British Columbia", "stock": "0.07 CDN ", "symbol": "ALTA\/T6UP\/EQTRF" }, "geometry": { "type": "Point", "coordinates": [ -123.1142912, 49.2853029 ] } },
{ "type": "Feature", "properties": { "add": "38 Duffy Place, St Johns, NL, A1B 4M5", "city": "St. John's", "country": "ca", "exchange": "TSE", "name": "Altius Minerals Corp.", "region": null, "state": "Newfoundland and Labrador", "stock": "11.44 CDN", "symbol": "ALS" }, "geometry": { "type": "Point", "coordinates": [ -52.776632, 47.559377 ] } },
{ "type": "Feature", "properties": { "add": "800 West Pender St, Vancouver, BC V6C 2V6", "city": "Vancouver", "country": "ca", "exchange": "TSX Venture", "name": "Alto Ventures Ltd.", "region": null, "state": "British Columbia", "stock": "0.03 CDN", "symbol": "ATV" }, "geometry": { "type": "Point", "coordinates": [ -123.1164135, 49.2853994 ] } },
{ "type": "Feature", "properties": { "add": "1199 West Pender St, Vancouver, BC V6E 2R1", "city": "Vancouver", "country": "ca", "exchange": "TSX Venture\/Frankfurt\/US ", "name": "ALX Resources Corp.", "region": null, "state": "British Columbia", "stock": "0.05 CDN ", "symbol": "AL\/6LLN\/ALXEF" }, "geometry": { "type": "Point", "coordinates": [ -123.07925, 49.280055 ] } },
{ "type": "Feature", "properties": { "add": "82 Richmond St East, Toronto, ON M5C 1P1", "city": "Toronto", "country": "ca", "exchange": "TSX Venture", "name": "Amarillo Gold Corp.", "region": null, "state": "Ontario", "stock": "0.20 CDN ", "symbol": "AGC" }, "geometry": { "type": "Point", "coordinates": [ -79.3750388, 43.6526534 ] } },
{ "type": "Feature", "properties": { "add": "92 2 Ave W, Cardston, AB T0K 0K0", "city": "Town of Cardston", "country": "ca", "exchange": "TSX Venture", "name": "American Creek Resources Ltd.", "region": null, "state": "Alberta", "stock": "0.08 CDN ", "symbol": "AMK" }, "geometry": { "type": "Point", "coordinates": [ -113.3155792, 49.2005905 ] } },
{ "type": "Feature", "properties": { "add": "145 King St W, Toronto, ON M5H 1J8", "city": "Toronto", "country": "ca", "exchange": "TSE", "name": "Americas Gold and Silver", "region": null, "state": "Ontario", "stock": "3.78 CDN", "symbol": "USA" }, "geometry": { "type": "Point", "coordinates": [ -79.387868, 43.647262 ] } },
{ "type": "Feature", "properties": { "add": "355 Burrard St, Vancouver, BC V6C 2G8", "city": "Vancouver", "country": "ca", "exchange": "TSE ", "name": "Amerigo Resources Ltd.", "region": null, "state": "British Columbia", "stock": "0.55 CDN ", "symbol": "ARG " }, "geometry": { "type": "Point", "coordinates": [ -123.116591, 49.288158 ] } },
{ "type": "Feature", "properties": { "add": "410 Rue Saint Nicolas, Montréal, QC H2Y 2P5", "city": "Montreal", "country": "ca", "exchange": "TSX Venture\/FRA\/OTCQX", "name": "Amex Exploration", "region": null, "state": "Quebec", "stock": "1.46 CDN", "symbol": "AMX\/MX0\/AMXEF" }, "geometry": { "type": "Point", "coordinates": [ -73.556053, 45.502082 ] } },
{ "type": "Feature", "properties": { "add": "150 York St, Toronto, ON M5H 3S5", "city": "Toronto", "country": "ca", "exchange": "TSE\/OTCQX ", "name": "Anaconda Mining Inc.", "region": null, "state": "Ontario", "stock": "0.24 CDN ", "symbol": "ANX\/ANXGF " }, "geometry": { "type": "Point", "coordinates": [ -79.3845764, 43.6495789 ] } },
{ "type": "Feature", "properties": { "add": "Cl 108 45-30 Bogota", "city": "Suba", "country": "co", "exchange": null, "name": "Andino Commodities S.A.S", "region": null, "state": "Bogota Capital District", "stock": null, "symbol": null }, "geometry": { "type": "Point", "coordinates": [ -74.0593632, 4.6958741 ] } },
{ "type": "Feature", "properties": { "add": "20 Carlton House Terrace, St James's, London SW1Y 5AN", "city": "London", "country": "gb", "exchange": "London ", "name": "Anglo American", "region": null, "state": "England", "stock": "2.161.50 GBX", "symbol": "AAL " }, "geometry": { "type": "Point", "coordinates": [ -0.130645, 51.507148 ] } },
{ "type": "Feature", "properties": { "add": "2 Toronto St, Toronto, ON M5C 2B6", "city": "Toronto", "country": "ca", "exchange": "CSE ", "name": "Appia Energy Corp.", "region": null, "state": "Ontario", "stock": "0.20 CDN", "symbol": "API" }, "geometry": { "type": "Point", "coordinates": [ -79.376175, 43.649696 ] } },
{ "type": "Feature", "properties": { "add": "141 Adelaide St W, Toronto, ON M5H 3L5", "city": "Toronto", "country": "ca", "exchange": "TSE\/OTCQB", "name": "Aquila Resources Inc.", "region": null, "state": "Ontario", "stock": "0.15 CDN ", "symbol": "AQA\/AQARF" }, "geometry": { "type": "Point", "coordinates": [ -79.404066, 43.644554 ] } },
{ "type": "Feature", "properties": { "add": "1111 Melville St, Vancouver, BC V6E 3V6", "city": "Vancouver", "country": "ca", "exchange": "TSX Venture", "name": "Arctic Star Exploration Corp.", "region": null, "state": "British Columbia", "stock": "0.08 CDN", "symbol": "ADD" }, "geometry": { "type": "Point", "coordinates": [ -123.122136, 49.286786 ] } },
{ "type": "Feature", "properties": { "add": "34 Colin St, West Perth, WA 6005", "city": "Perth", "country": "au", "exchange": "Sydney (ASX)", "name": "Ardiden Limited", "region": null, "state": "Western Australia", "stock": "0.00 CDN ", "symbol": "ASX" }, "geometry": { "type": "Point", "coordinates": [ 115.8414839, -31.9506404 ] } },
{ "type": "Feature", "properties": { "add": null, "city": null, "country": null, "exchange": null, "name": "Ares Strategic Mining Inc.", "region": null, "state": null, "stock": null, "symbol": null }, "geometry": null },
{ "type": "Feature", "properties": { "add": "350 Bay St, Toronto, ON M5H 2S6", "city": "Toronto", "country": "ca", "exchange": "CSE\/OTC\/Frankfurt", "name": "Argo Gold", "region": null, "state": "Ontario", "stock": "0.10 CDN", "symbol": "ARQ\/ARBTF\/FSE" }, "geometry": { "type": "Point", "coordinates": [ -79.381325, 43.650406 ] } },
{ "type": "Feature", "properties": { "add": "9600 Prototype Court, Reno, NV 89521", "city": "Reno", "country": "us", "exchange": "TSE", "name": "Argonaut Gold Inc.", "region": null, "state": "Nevada", "stock": "1.92 CDN ", "symbol": "AR" }, "geometry": { "type": "Point", "coordinates": [ -119.7653001, 39.4434084 ] } },
{ "type": "Feature", "properties": { "add": "595 Burrard St Vancouver, BC V7X 1L3", "city": "Vancouver", "country": "ca", "exchange": "TSX Venture", "name": "Artemis Gold Inc.", "region": null, "state": "British Columbia", "stock": "1.40 CDN", "symbol": "ARTG " }, "geometry": { "type": "Point", "coordinates": [ -123.11973, 49.28613 ] } },
{ "type": "Feature", "properties": { "add": "633 Courtney St, Victoria, BC V8W 1B8", "city": "Victoria", "country": "ca", "exchange": null, "name": "Artisanal Gold Council", "region": null, "state": "British Columbia", "stock": null, "symbol": null }, "geometry": { "type": "Point", "coordinates": [ -123.366445, 48.423106 ] } },
{ "type": "Feature", "properties": { "add": "595 Howe St, Vancouver, BC V6C 2T5", "city": "Vancouver", "country": "ca", "exchange": "CSE\/Frankfurt ", "name": "Asante Gold Corporation", "region": null, "state": "British Columbia", "stock": "0.05", "symbol": "ASE\/1A9" }, "geometry": { "type": "Point", "coordinates": [ -123.117446, 49.284596 ] } },
{ "type": "Feature", "properties": { "add": "110 Yonge St Toronto, ON M5C 1T4", "city": "Toronto", "country": "ca", "exchange": "TSE\/OTCQX", "name": "Ascendant Resources Inc.", "region": null, "state": "Ontario", "stock": "0.40 CDN", "symbol": "ASND\/ASDRF" }, "geometry": { "type": "Point", "coordinates": [ -79.385157, 43.647459 ] } },
{ "type": "Feature", "properties": { "add": "505 Burrard St, Vancouver, BC V7X 1E5", "city": "Vancouver", "country": "ca", "exchange": "TSE\/OTCQX", "name": "Ascot Resources Ltd.", "region": null, "state": "British Columbia", "stock": "0.76 CDN", "symbol": "AOT\/AOTVF" }, "geometry": { "type": "Point", "coordinates": [ -123.118975, 49.286563 ] } },
{ "type": "Feature", "properties": { "add": "80 Richmond St, Toronto, ON M5H 2A4", "city": "Toronto", "country": "ca", "exchange": "TSX Venture", "name": "Aston Bay", "region": null, "state": "Ontario", "stock": "0.06 CDN", "symbol": "BAY" }, "geometry": { "type": "Point", "coordinates": [ -79.382156, 43.651237 ] } },
{ "type": "Feature", "properties": { "add": "510 W Hastings St, Vancouver, BC V6B 1L8", "city": "Vancouver", "country": "ca", "exchange": "TSX Venture", "name": "ATAC Resources Ltd.", "region": null, "state": "British Columbia", "stock": "0.22CDN", "symbol": "ATC " }, "geometry": { "type": "Point", "coordinates": [ -123.112371, 49.283923 ] } },
{ "type": "Feature", "properties": { "add": "40 Wellington Row, St John, NB E2L 4S3", "city": "Saint John", "country": "ca", "exchange": null, "name": "Atlantic Gold Corporation", "region": null, "state": "New Brunswick", "stock": null, "symbol": null }, "geometry": { "type": "Point", "coordinates": [ -66.056124, 45.27575 ] } },
{ "type": "Feature", "properties": { "add": "757 W Hastings St, Vancouver, BC V6C 1A1", "city": "Vancouver", "country": "ca", "exchange": "TSX Venture", "name": "Auramex Resource Corp", "region": null, "state": "British Columbia", "stock": "0.04 CDN", "symbol": "AUX" }, "geometry": { "type": "Point", "coordinates": [ -123.114318, 49.286204 ] } },
{ "type": "Feature", "properties": { "add": "36 Toronto St, Toronto, ON M5C 2C5", "city": "Toronto", "country": "ca", "exchange": "TSX Venture", "name": "Aurania Resources Ltd.", "region": null, "state": "Ontario", "stock": "3.92 CDN ", "symbol": "ARU" }, "geometry": { "type": "Point", "coordinates": [ -79.535526, 43.590324 ] } },
{ "type": "Feature", "properties": { "add": "20 Kings Park Rd, West Perth, WA 6005", "city": "Perth", "country": "au", "exchange": "Sydney (ASX)", "name": "Aurora Minerals Group LLP", "region": null, "state": "Western Australia", "stock": "0.01 AUS", "symbol": "ARM" }, "geometry": { "type": "Point", "coordinates": [ 115.8400568, -31.9523044 ] } },
{ "type": "Feature", "properties": { "add": "5 Cheapside, London, UK EC2V 6AA", "city": "London", "country": "gb", "exchange": "London (AIM) ", "name": "Aurum Discovery", "region": null, "state": "England", "stock": "248.40 GBX", "symbol": "SWG" }, "geometry": { "type": "Point", "coordinates": [ -0.0873892, 51.6167501 ] } },
{ "type": "Feature", "properties": { "add": "San Francisco de Asís 150, Vitacura, Los Condes, Región Metropolitana", "city": "Las Condes", "country": "cl", "exchange": "OTCQX", "name": "AURYN Mining Corp.", "region": null, "state": "Santiago Metropolitan Region", "stock": "0.17 CDN ", "symbol": "AUMC" }, "geometry": { "type": "Point", "coordinates": [ -70.5913067, -33.4125813 ] } },
{ "type": "Feature", "properties": { "add": "1199 W Hastings St, Vancouver, BC V6E 3T5", "city": "Vancouver", "country": "ca", "exchange": "TSE\/NYSE", "name": "Auryn Resources Inc.", "region": null, "state": "British Columbia", "stock": "1.70 CDN", "symbol": "AUG" }, "geometry": { "type": "Point", "coordinates": [ -123.122234, 49.288927 ] } },
{ "type": "Feature", "properties": { "add": "130 Adelaide St W, Toronto, ON M5H 3P5", "city": "Spadina—Fort York", "country": "ca", "exchange": "TSE\/OTCQB", "name": "Avalon Advanced Materials Inc.", "region": null, "state": "Ontario", "stock": "0.06 CDN", "symbol": "AVL\/AVLNF" }, "geometry": { "type": "Point", "coordinates": [ -79.383812, 43.649693 ] } },
{ "type": "Feature", "properties": { "add": "18 King St E, Toronto, ON M5C 1C4", "city": "Toronto", "country": "ca", "exchange": "TSX Venture", "name": "Avidian Gold Corp.", "region": null, "state": "Ontario", "stock": "0.11 CDN ", "symbol": "AVG " }, "geometry": { "type": "Point", "coordinates": [ -79.377094, 43.649535 ] } },
{ "type": "Feature", "properties": { "add": "570 Granville St, Vancouver, BC V6C 3P1", "city": "Vancouver", "country": "ca", "exchange": "TSE\/NYSE ", "name": "Avino Silver & Gold Mines Ltd.", "region": null, "state": "British Columbia", "stock": "0.69 CDN ", "symbol": "ASM " }, "geometry": { "type": "Point", "coordinates": [ -123.115659, 49.28372 ] } },
{ "type": "Feature", "properties": { "add": "400 Burrard St, Vancouver, BC V6C 3A6", "city": "Vancouver", "country": "ca", "exchange": "TSX Venture", "name": "Awale Resources Ltd.", "region": null, "state": "British Columbia", "stock": "0.12 CDN ", "symbol": "ARIC " }, "geometry": { "type": "Point", "coordinates": [ -123.117075, 49.286617 ] } },
{ "type": "Feature", "properties": { "add": "110 De La Barre St, Longueuil, QC J4K 1A3", "city": "Longueuil", "country": "ca", "exchange": "TSX Venture", "name": "Azimut Exploration Inc.", "region": null, "state": "Quebec", "stock": "1.33 CDN ", "symbol": "AZM " }, "geometry": { "type": "Point", "coordinates": [ -73.522642, 45.527998 ] } },
{ "type": "Feature", "properties": { "add": "34 Colin St, West Perth, WA 6005", "city": "Perth", "country": "au", "exchange": "Sydney (ASX)", "name": "Azure Minerals Limited", "region": null, "state": "Western Australia", "stock": "0.14 AUS", "symbol": "AZS" }, "geometry": { "type": "Point", "coordinates": [ 115.8414839, -31.9506404 ] } },
{ "type": "Feature", "properties": { "add": "595 Burrard St, Vancouver,  BC V7X 1L7", "city": "Vancouver", "country": "ca", "exchange": "TSE\/NYSE", "name": "B2Gold Corp.", "region": null, "state": "British Columbia", "stock": "5.33 CDN ", "symbol": "BTO\/BTG " }, "geometry": { "type": "Point", "coordinates": [ -123.115317, 49.288288 ] } },
{ "type": "Feature", "properties": { "add": "700 W Pender St, Vancouver, BC V6C 1G8", "city": "Vancouver", "country": "ca", "exchange": "TSE\/OTCQX", "name": "Balmoral Resources Ltd.", "region": null, "state": "British Columbia", "stock": "0.34 CDN ", "symbol": "BAR\/BALMF" }, "geometry": { "type": "Point", "coordinates": [ -123.1154498, 49.2846592 ] } },
{ "type": "Feature", "properties": { "add": "1050 W Pender St, Vancouver, BC V6E 3S7", "city": "Vancouver", "country": "ca", "exchange": "TSX Venture", "name": "Banyan Gold Corp.", "region": null, "state": "British Columbia", "stock": "0.07CDN ", "symbol": "BYN " }, "geometry": { "type": "Point", "coordinates": [ -123.119633, 49.286888 ] } },
{ "type": "Feature", "properties": { "add": "815 Hornby St, Vancouver, BC V6Z 2E6", "city": "Vancouver", "country": "ca", "exchange": "TSX Venture\/OTCQB\/FSE", "name": "Barrian Mining Corp", "region": null, "state": "British Columbia", "stock": "0.13 CDN ", "symbol": "BARI\/BARRF\/BM5" }, "geometry": { "type": "Point", "coordinates": [ -123.121755, 49.282649 ] } },
{ "type": "Feature", "properties": { "add": "161 Bay St, Toronto, ON M5J 2S1", "city": "Toronto", "country": "ca", "exchange": "TSE\/NYSE", "name": "Barrick Gold Corporation", "region": null, "state": "Ontario", "stock": "23.60 CDN", "symbol": "ABX\/GOLD" }, "geometry": { "type": "Point", "coordinates": [ -79.3787741, 43.6469 ] } },
{ "type": "Feature", "properties": { "add": "595 Burrard St, Vancouver, BC V7X 1J1", "city": "Vancouver", "country": "ca", "exchange": "TSX Venture", "name": "BeMetals Corp.", "region": null, "state": "British Columbia", "stock": "0.22 CDN", "symbol": "BMET" }, "geometry": { "type": "Point", "coordinates": [ -123.011694, 49.210523 ] } },
{ "type": "Feature", "properties": { "add": "684 Squier St Thunder Bay, ON P7B 4A8", "city": "Thunder Bay", "country": "ca", "exchange": "TSX Venture", "name": "Benton Resources Inc.", "region": null, "state": "Ontario", "stock": "0.05 CDN", "symbol": "BEX" }, "geometry": { "type": "Point", "coordinates": [ -89.24644, 48.41608 ] } },
{ "type": "Feature", "properties": { "add": "171 Collins St, Melbourne, VIC 3000", "city": null, "country": "au", "exchange": "London (AIM) ", "name": "BHP", "region": null, "state": "Victoria", "stock": "1.851.60 GBX", "symbol": "BHP" }, "geometry": { "type": "Point", "coordinates": [ 144.9681574, -37.815202 ] } },
{ "type": "Feature", "properties": { "add": "409 Granville St, Vancouver, BC V6C 1T2", "city": "Vancouver", "country": "ca", "exchange": "TSX Venture\/OTC\/FSE", "name": "BlackRock Gold Corp.", "region": null, "state": "British Columbia", "stock": "0.16 CDN", "symbol": "BRC\/BKRRF\/AHZ" }, "geometry": { "type": "Point", "coordinates": [ -123.1142912, 49.2853029 ] } },
{ "type": "Feature", "properties": { "add": "24 Outram St, West Perth, WA, 6005", "city": "Perth", "country": "au", "exchange": "Sydney (ASX)", "name": "Blackstone Minerals Ltd", "region": null, "state": "Western Australia", "stock": "0.17 AUS", "symbol": "BSX" }, "geometry": { "type": "Point", "coordinates": [ 115.8390075, -31.9501833 ] } },
{ "type": "Feature", "properties": { "add": "750 W Pender St, Vancouver, BC V6C 2T7", "city": "Vancouver", "country": "ca", "exchange": "TSX Venture", "name": "Blind Creek Resources Ltd.", "region": null, "state": "British Columbia", "stock": "0.04 CDN", "symbol": "BCK " }, "geometry": { "type": "Point", "coordinates": [ -123.115356, 49.284971 ] } },
{ "type": "Feature", "properties": { "add": "595 Howe St, Vancouver, BC V6C 2T5", "city": "Vancouver", "country": "ca", "exchange": "TSX Venture", "name": "Blue Star Gold Corp.", "region": null, "state": "British Columbia", "stock": "0.05 CDN", "symbol": "BAU " }, "geometry": { "type": "Point", "coordinates": [ -123.117446, 49.284596 ] } },
{ "type": "Feature", "properties": { "add": "105 King St E, Toronto, ON M5C 1G6", "city": "Toronto", "country": "ca", "exchange": "Amalgamation and TSX-V listing are in progress and expected to close by the end of January 2020", "name": "Blue Thunder Mining Corp", "region": null, "state": "Ontario", "stock": null, "symbol": null }, "geometry": { "type": "Point", "coordinates": [ -79.373383, 43.649967 ] } },
{ "type": "Feature", "properties": { "add": "1055 W Georgia St, Vancouver, BC VE6 4N7", "city": "Vancouver", "country": "ca", "exchange": "TSX Venture\/OTCMKTS", "name": "BONTERRA Resources Inc.", "region": null, "state": "British Columbia", "stock": "1.72 CDN", "symbol": "BRT\/BONFX" }, "geometry": { "type": "Point", "coordinates": [ -123.1294014, 49.2898009 ] } },
{ "type": "Feature", "properties": { "add": "2520 16 St NW, Calgary, AB T2M 3R2", "city": "Calgary", "country": "ca", "exchange": "TSX Venture\/OTCQB", "name": "Braveheart Resources Inc.", "region": null, "state": "Alberta", "stock": "0.13 CDN", "symbol": "BHT\/RIINF" }, "geometry": { "type": "Point", "coordinates": [ -114.099111, 51.075052 ] } },
{ "type": "Feature", "properties": { "add": "12 Walker Ave, West Perth, WA 6005", "city": "Perth", "country": "au", "exchange": "Sydney (ASX)", "name": "Breaker Resources NL", "region": null, "state": "Western Australia", "stock": "0.28 CDN", "symbol": "BRB " }, "geometry": { "type": "Point", "coordinates": [ 115.8367992, -31.9504028 ] } },
{ "type": "Feature", "properties": { "add": "409 Granville St, Vancouver, BC V6C 1T2", "city": "Vancouver", "country": "ca", "exchange": "TSX Venture", "name": "Brixton Metals Corporation", "region": null, "state": "British Columbia", "stock": "0.17 CDN", "symbol": "BBB" }, "geometry": { "type": "Point", "coordinates": [ -123.1142912, 49.2853029 ] } },
{ "type": "Feature", "properties": { "add": null, "city": null, "country": null, "exchange": null, "name": "BTU Metals Corp.", "region": null, "state": null, "stock": null, "symbol": null }, "geometry": null },
{ "type": "Feature", "properties": { "add": "55 University Ave, Toronto, ON M5J 2H7", "city": "Toronto", "country": "ca", "exchange": null, "name": "Buchans Resources Ltd.", "region": null, "state": "Ontario", "stock": null, "symbol": null }, "geometry": { "type": "Point", "coordinates": [ -79.38401, 43.646957 ] } },
{ "type": "Feature", "properties": { "add": "82 Richmond St E, Toronto, ON M5C 1P1", "city": "Toronto", "country": "ca", "exchange": "TSX Venture", "name": "BWR Exploration Inc.", "region": null, "state": "Ontario", "stock": "0.05 CDN", "symbol": "BWR" }, "geometry": { "type": "Point", "coordinates": [ -79.3750388, 43.6526534 ] } },
{ "type": "Feature", "properties": { "add": "409 Granville St, Vancouver, BC V6C 1T2", "city": "Vancouver", "country": "ca", "exchange": "TSX Venture", "name": "Cabral Gold Ltd.", "region": null, "state": "British Columbia", "stock": "0.10 CDN", "symbol": "CBGZF" }, "geometry": { "type": "Point", "coordinates": [ -123.1142912, 49.2853029 ] } },
{ "type": "Feature", "properties": { "add": "555 W Hastings St, Vancouver, BC V6B 4N6", "city": "Vancouver", "country": "ca", "exchange": "TSX Venture\/OTCQB", "name": "Callinex Mines Inc.", "region": null, "state": "British Columbia", "stock": "0.81 CDN", "symbol": "CNX\/CLLXF" }, "geometry": { "type": "Point", "coordinates": [ -123.1120643, 49.2847674 ] } },
{ "type": "Feature", "properties": { "add": "120 Adelaide St W, Toronto, ON M5H 1T1", "city": "Toronto", "country": "ca", "exchange": null, "name": "Canada Nickel Company", "region": null, "state": "Ontario", "stock": null, "symbol": null }, "geometry": { "type": "Point", "coordinates": [ -79.383203, 43.650014 ] } },
{ "type": "Feature", "properties": { "add": "100 King St W, Toronto, ON M5X 1E1", "city": "Old Toronto", "country": "ca", "exchange": null, "name": "Canadian Securities Exchange", "region": null, "state": "Ontario", "stock": null, "symbol": null }, "geometry": { "type": "Point", "coordinates": [ -79.697724, 43.990672 ] } },
{ "type": "Feature", "properties": { "add": "625 Howe St, Vancouver, BC V6C 2T6", "city": "Vancouver", "country": "ca", "exchange": "TSX Venture\/OTC\/FWB", "name": "CanAlaska Uranium Ltd.", "region": null, "state": "British Columbia", "stock": "0.22 CDN", "symbol": "CVV\/CVVUF\/DH7N" }, "geometry": { "type": "Point", "coordinates": [ -123.117998, 49.284231 ] } },
{ "type": "Feature", "properties": { "add": "625 Howe St, Vancouver, BC V6C 2T6", "city": "Vancouver", "country": "ca", "exchange": "TSE\/OTCQB\/Frankfurt", "name": "Canarc Resource Corp.", "region": null, "state": "British Columbia", "stock": "0.06 CDN", "symbol": "CCM\/CRCUF\/CAN" }, "geometry": { "type": "Point", "coordinates": [ -123.117998, 49.284231 ] } },
{ "type": "Feature", "properties": { "add": "1111 Melville St, Vancouver, BC V6E 3V6", "city": "Vancouver", "country": "ca", "exchange": "TSE", "name": "Candente Copper Corp.", "region": null, "state": "British Columbia", "stock": "0.04 CDN", "symbol": "DNT " }, "geometry": { "type": "Point", "coordinates": [ -123.122136, 49.286786 ] } },
{ "type": "Feature", "properties": { "add": null, "city": null, "country": null, "exchange": null, "name": "Cantex Mine Development Corp", "region": null, "state": null, "stock": null, "symbol": null }, "geometry": null },
{ "type": "Feature", "properties": { "add": "28 Ord St, West Perth, WA 6005", "city": "Perth", "country": "au", "exchange": "TSE\/Sydney (ASX)", "name": "Cardinal Resources Ltd.", "region": null, "state": "Western Australia", "stock": "0.36 CDN", "symbol": "CDV" }, "geometry": { "type": "Point", "coordinates": [ 115.8408263, -31.9502644 ] } },
{ "type": "Feature", "properties": { "add": "133 Richmond St W, Toronto, ON M5H 2L3", "city": "Toronto", "country": "ca", "exchange": "TSX-Venture ", "name": "Carube Copper Corp.", "region": null, "state": "Ontario", "stock": "0.06 CDN", "symbol": "CUC" }, "geometry": { "type": "Point", "coordinates": [ -79.3849675, 43.6502576 ] } },
{ "type": "Feature", "properties": { "add": "10 Outram St, West Perth WA 6005", "city": "Perth", "country": "au", "exchange": "Sydney (ASX)", "name": "Centaurus Metals Ltd", "region": null, "state": "Western Australia", "stock": "0.01 AUS", "symbol": "CTM" }, "geometry": { "type": "Point", "coordinates": [ 115.8389326, -31.9509888 ] } },
{ "type": "Feature", "properties": { "add": "1 University Ave, Toronto, ON M5J 2P1", "city": "Toronto", "country": "ca", "exchange": "TSE ", "name": "Centerra Gold Inc.", "region": null, "state": "Ontario", "stock": "9.40 CDN ", "symbol": "CG" }, "geometry": { "type": "Point", "coordinates": [ -79.383179, 43.645798 ] } },
{ "type": "Feature", "properties": { "add": "200 University Ave, Toronto, ON M5H 3C6", "city": "Spadina—Fort York", "country": "ca", "exchange": "TSX-Venture ", "name": "Century Global Commodities Corporation", "region": null, "state": "Ontario", "stock": "0.09 CDN ", "symbol": "CNT" }, "geometry": { "type": "Point", "coordinates": [ -79.387009, 43.648991 ] } },
{ "type": "Feature", "properties": { "add": "22 Avenue Lafleur, Saint-Sauveur, Quebec J0R 1R0", "city": "Saint-Sauveur", "country": "ca", "exchange": "CSE", "name": "Cerro de Pasco Resources Inc.", "region": null, "state": "Quebec", "stock": "0.49 CDN", "symbol": "CDPR" }, "geometry": { "type": "Point", "coordinates": [ -74.161289, 45.89289 ] } },
{ "type": "Feature", "properties": { "add": "800 W Pender St, Vancouver, BC V6C 2V6", "city": "Vancouver", "country": "ca", "exchange": "TSX-Venture \/OTCQB\/FRA", "name": "Chakana Copper Corporation", "region": null, "state": "British Columbia", "stock": "0.18 CDN", "symbol": "PERU\/CHKK\/1ZX" }, "geometry": { "type": "Point", "coordinates": [ -123.1164135, 49.2853994 ] } },
{ "type": "Feature", "properties": { "add": "1512 Yew St, Vancouver, BC V6K 3E4", "city": "Vancouver", "country": "ca", "exchange": "TSX-Venture ", "name": "Chesapeake Gold Corporation", "region": null, "state": "British Columbia", "stock": "3.05 CDN", "symbol": "CKG" }, "geometry": { "type": "Point", "coordinates": [ -123.1559279, 49.2507386 ] } },
{ "type": "Feature", "properties": { "add": "505 Burrard St, Vancouver, BC V7X 1M4", "city": "Vancouver", "country": "ca", "exchange": "TSE", "name": "China Gold International Resources Corp. Ltd.", "region": null, "state": "British Columbia", "stock": "1.15 CDN", "symbol": "CGG" }, "geometry": { "type": "Point", "coordinates": [ -123.120132, 49.285227 ] } },
{ "type": "Feature", "properties": { "add": "1004 Alloy Dr, Thunder Bay, ON P7B 6V1", "city": "Thunder Bay", "country": "ca", "exchange": "TSX-Venture ", "name": "Clean Air Metals Inc", "region": null, "state": "Ontario", "stock": "0.13CDN (Presently Regency Gold Corp)", "symbol": "RUA:H" }, "geometry": { "type": "Point", "coordinates": [ -89.182163, 48.454154 ] } },
{ "type": "Feature", "properties": { "add": "1090 Hamilton St, Vancouver, BC V6B 2R9", "city": "Vancouver", "country": "ca", "exchange": "TSE\/OTCQB", "name": "Columbus Gold Corp.", "region": null, "state": "British Columbia", "stock": "0.17 CDN", "symbol": "CGT\/CGTFF" }, "geometry": { "type": "Point", "coordinates": [ -123.120303, 49.276526 ] } },
{ "type": "Feature", "properties": { "add": "1111 Melville St, Vancouver, BC V6E 3V6", "city": "Vancouver", "country": "ca", "exchange": "TSX-Venture ", "name": "Commander Resources Ltd.", "region": null, "state": "British Columbia", "stock": "0.07 CDN", "symbol": "CMD" }, "geometry": { "type": "Point", "coordinates": [ -123.122136, 49.286786 ] } },
{ "type": "Feature", "properties": { "add": "789 W Pender St, Vancouver, BC V6C 1H2", "city": "Vancouver", "country": "ca", "exchange": "TSX-Venture\/FSE\/OTCQX", "name": "Commerce Resources Corp.", "region": null, "state": "British Columbia", "stock": "0.30 CDN", "symbol": "CCE\/D7H\/CMRZF" }, "geometry": { "type": "Point", "coordinates": [ -123.115458, 49.285288 ] } },
{ "type": "Feature", "properties": { "add": "7\/8 Innovation Place, Douglas Dr, Godalming, UK GU7 1JX", "city": "Waverley", "country": "gb", "exchange": "TSE", "name": "Condor Gold Plc", "region": "South East England", "state": "England", "stock": "0.40 CDN", "symbol": "COG " }, "geometry": { "type": "Point", "coordinates": [ -0.602569, 51.187638 ] } },
{ "type": "Feature", "properties": { "add": "3300 Lake Dr, Dublin D24 TD21", "city": "Dublin 15", "country": "ie", "exchange": "London (AIM) ", "name": "Conroy Gold and Natural Resources plc", "region": null, "state": "Leinster", "stock": "8.72 GBX", "symbol": "CGNR" }, "geometry": { "type": "Point", "coordinates": [ -6.4340401, 53.3899303 ] } },
{ "type": "Feature", "properties": { "add": "800 W Pender St, Vancouver, BC V6C 2V6", "city": "Vancouver", "country": "ca", "exchange": "TSX-Venture\/OTCQX", "name": "Constantine Metal Resources Ltd.", "region": null, "state": "British Columbia", "stock": "0.23 CDN", "symbol": "CEM\/CNSNF" }, "geometry": { "type": "Point", "coordinates": [ -123.1164135, 49.2853994 ] } },
{ "type": "Feature", "properties": { "add": "Jiron Tinajones 177, Santiago de Surco 15038", "city": "Santiago de Surco", "country": "pe", "exchange": null, "name": "Consulting & Mining Sevices SRL", "region": "Province of Lima", "state": "Lima", "stock": null, "symbol": null }, "geometry": { "type": "Point", "coordinates": [ -76.9924011, -12.114799 ] } },
{ "type": "Feature", "properties": { "add": "155 Wellington St W, Toronto, ON M5V 3H1", "city": "Toronto", "country": "ca", "exchange": "TSE ", "name": "Continental Gold Inc.", "region": null, "state": "Ontario", "stock": "5.46 CDN", "symbol": "CNL" }, "geometry": { "type": "Point", "coordinates": [ -79.385742, 43.645844 ] } },
{ "type": "Feature", "properties": { "add": "340 12th Ave SW, Calgary, AB T2R 1L5", "city": "Calgary", "country": "ca", "exchange": "TSX-Venture ", "name": "Copper Fox Metals Inc.", "region": null, "state": "Alberta", "stock": "0.09 CDN", "symbol": "CUU" }, "geometry": { "type": "Point", "coordinates": [ -114.070268, 51.041741 ] } },
{ "type": "Feature", "properties": { "add": "700 W Pender St, Vancouver, BC V6C 1G8", "city": "Vancouver", "country": "ca", "exchange": "TSE\/Sydney (ASX)", "name": "Copper Mountain Mining Corporation", "region": null, "state": "British Columbia", "stock": "0.79 CDN", "symbol": "CMMC\/C6C" }, "geometry": { "type": "Point", "coordinates": [ -123.1154498, 49.2846592 ] } },
{ "type": "Feature", "properties": { "add": "55 Metcalfe St, Ottawa, ON K1P 6L5", "city": "Ottawa", "country": "ca", "exchange": "Privately Held", "name": "Copperzone Resources Limited", "region": null, "state": "Ontario", "stock": null, "symbol": null }, "geometry": { "type": "Point", "coordinates": [ -75.6960834, 45.4221069 ] } },
{ "type": "Feature", "properties": { "add": "1730 St Laurent Blvd, Ottawa, ON K1G 3Y7", "city": "Ottawa", "country": "ca", "exchange": "TSX-Venture\/OTCQX\/Frankfurt", "name": "Cornerstone Capital Resources Inc.", "region": null, "state": "Ontario", "stock": "3.49 CDN", "symbol": "CGP\/CTNXF\/GWN" }, "geometry": { "type": "Point", "coordinates": [ -75.627905, 45.405849 ] } },
{ "type": "Feature", "properties": { "add": "700 W Pender St, Vancouver, BC V6C 1G8", "city": "Vancouver", "country": "ca", "exchange": "TSE\/OTCQX", "name": "Corvus Gold Inc.", "region": null, "state": "British Columbia", "stock": "1.95 CDN", "symbol": "KOR\/CORVF" }, "geometry": { "type": "Point", "coordinates": [ -123.1154498, 49.2846592 ] } },
{ "type": "Feature", "properties": { "add": "1080 Côte du Beaver Hall, Montreal, QC H2Z 1S8", "city": "Montreal", "country": "ca", "exchange": "TSX-Venture\/OTCMKTS", "name": "Critical Elements Corporation", "region": null, "state": "Quebec", "stock": "0.38 CDN", "symbol": "CRE\/CRECF" }, "geometry": { "type": "Point", "coordinates": [ -73.565451, 45.502432 ] } },
{ "type": "Feature", "properties": { "add": "13236 Cliffstone Ct, Lake Country, BC V4V 2R1", "city": "Lake Country", "country": "ca", "exchange": "TSX-Venture\/OTCQX\/FSE", "name": "Crystal Lake Mining", "region": null, "state": "British Columbia", "stock": "0.15 CDN", "symbol": "CLM\/SIOCF\/SPG-FF" }, "geometry": { "type": "Point", "coordinates": [ -119.41058, 50.074288 ] } },
{ "type": "Feature", "properties": { "add": "İnönü Cad. No:8, Gümüşsuyu 34437 Beyoğlu İstanbul", "city": null, "country": "tr", "exchange": null, "name": "CVK Mining Group", "region": null, "state": "Istanbul", "stock": null, "symbol": null }, "geometry": { "type": "Point", "coordinates": [ 28.9866, 41.0371 ] } },
{ "type": "Feature", "properties": { "add": "595 Howe St, Vancouver, BC V6C 2T5", "city": "Vancouver", "country": "ca", "exchange": "TSX-Venture\/OTCQX", "name": "Defiance Silver Corp.", "region": null, "state": "British Columbia", "stock": "0.22 CDN", "symbol": "DEF\/DNCVF" }, "geometry": { "type": "Point", "coordinates": [ -123.117446, 49.284596 ] } },
{ "type": "Feature", "properties": { "add": "1718 Christine Crescent, Kingston, ON K7L 4V4", "city": "Kingston", "country": "ca", "exchange": "TSX-Venture ", "name": "Delta Resources Limited", "region": null, "state": "Ontario", "stock": "0.18 CDN", "symbol": "DLTA " }, "geometry": { "type": "Point", "coordinates": [ -76.5144778, 44.294087 ] } },
{ "type": "Feature", "properties": { "add": "40 University Ave, Toronto, ON M5J 1T1", "city": "Toronto", "country": "ca", "exchange": "TSE\/NYSE", "name": "Denison Mines Corp.", "region": null, "state": "Ontario", "stock": "0.50 CDN", "symbol": "DML\/DNN" }, "geometry": { "type": "Point", "coordinates": [ -79.395111, 43.670307 ] } },
{ "type": "Feature", "properties": { "add": "4770 72nd St, Delta, BC V4K 3N3", "city": "Delta", "country": "ca", "exchange": "TSX-Venture ", "name": "Desert Gold Ventures Inc.", "region": null, "state": "British Columbia", "stock": "0.14 CDN", "symbol": "DAU " }, "geometry": { "type": "Point", "coordinates": [ -122.957852, 49.091868 ] } },
{ "type": "Feature", "properties": { "add": "580 Hornby St, Vancouver, BC V6C 3B6", "city": "Vancouver", "country": "ca", "exchange": "TSX-Venture\/OTCQX\/Frankfurt", "name": "Desert Mountain Energy Corp.", "region": null, "state": "British Columbia", "stock": "0.23 CDN", "symbol": "DME\/DMEHF\/QM01.F" }, "geometry": { "type": "Point", "coordinates": [ -123.117909, 49.285199 ] } },
{ "type": "Feature", "properties": { "add": "1620 Dickson Ave, Kelowna, BC V1Y 9Y2", "city": "Kelowna", "country": "ca", "exchange": "TSX-Venture\/OTCQX", "name": "Diamcor Mining Inc.", "region": null, "state": "British Columbia", "stock": "0.17 CDN", "symbol": "DMI\/DMIFF" }, "geometry": { "type": "Point", "coordinates": [ -119.461477, 49.880714 ] } },
{ "type": "Feature", "properties": { "add": null, "city": null, "country": null, "exchange": "Revenue Neutral ", "name": "Discovery Group", "region": null, "state": null, "stock": "Revenue Neutral ", "symbol": "Revenue Neutral " }, "geometry": null },
{ "type": "Feature", "properties": { "add": "1 Adelaide St, Toronto, ON M5C 2V9", "city": "Toronto", "country": "ca", "exchange": "TSE ", "name": "Dundee Precious Metals Inc.", "region": null, "state": "Ontario", "stock": "6.26 CDN", "symbol": "DPM " }, "geometry": { "type": "Point", "coordinates": [ -79.3781509, 43.6502102 ] } },
{ "type": "Feature", "properties": { "add": null, "city": null, "country": null, "exchange": null, "name": "Durango Resources Inc.", "region": null, "state": null, "stock": null, "symbol": null }, "geometry": null },
{ "type": "Feature", "properties": { "add": "625 René-Lévesque Blvd O, Montreal, QC H3B 1R2", "city": "Montreal", "country": "ca", "exchange": "TSE\/OTCQX", "name": "Dynacor Gold Mines Inc.", "region": "Montreal (06)", "state": "Quebec", "stock": "1.72 CDN", "symbol": "DNG\/DNGDF" }, "geometry": { "type": "Point", "coordinates": [ -73.564593, 45.5070453 ] } },
{ "type": "Feature", "properties": { "add": "610 Granville St, Vancouver, BC V6C 3T3", "city": "Vancouver", "country": "ca", "exchange": "TSX-Venture ", "name": "Dynasty Gold Corp.", "region": null, "state": "British Columbia", "stock": "0.07 CDN", "symbol": "DYG" }, "geometry": { "type": "Point", "coordinates": [ -123.116598, 49.283513 ] } },
{ "type": "Feature", "properties": { "add": "44 12th Ave S, Cranbrook, BC V1C 2R7", "city": "Cranbrook", "country": "ca", "exchange": "TSX-Venture ", "name": "Eagle Plains Resources Ltd.", "region": null, "state": "British Columbia", "stock": "0.10 CDN", "symbol": "EPL" }, "geometry": { "type": "Point", "coordinates": [ -115.764622, 49.511249 ] } },
{ "type": "Feature", "properties": { "add": "6661 Rue des Écores, Montréal, QC H2G 2J8", "city": "Montreal", "country": "ca", "exchange": null, "name": "Earthmetrix Inc.", "region": null, "state": "Quebec", "stock": null, "symbol": null }, "geometry": { "type": "Point", "coordinates": [ -73.594514, 45.548478 ] } },
{ "type": "Feature", "properties": { "add": "325 Howe St, Vancouver, BC V6C 1Z7", "city": "Vancouver", "country": "ca", "exchange": "TSX-Venture\/OTCQX", "name": "Eastfield Resources Ltd.", "region": null, "state": "British Columbia", "stock": "0.04 CDN", "symbol": "ETF\/ETFLF" }, "geometry": { "type": "Point", "coordinates": [ -123.11437, 49.286518 ] } },
{ "type": "Feature", "properties": { "add": "400 Burrard St, Vancouver, BC V6C 3A6", "city": "Vancouver", "country": "ca", "exchange": null, "name": "Eclipse Gold Mining Corp", "region": null, "state": "British Columbia", "stock": null, "symbol": null }, "geometry": { "type": "Point", "coordinates": [ -123.117075, 49.286617 ] } },
{ "type": "Feature", "properties": { "add": "R. Sampaio e Pina 1, 1070-050 Lisboa", "city": null, "country": "pt", "exchange": null, "name": "EDM-Empresa de Desenvolvimento Mineiro, SA", "region": null, "state": "Distrito da Guarda", "stock": null, "symbol": null }, "geometry": { "type": "Point", "coordinates": [ -9.1333, 38.7167 ] } },
{ "type": "Feature", "properties": { "add": "550 Burrard St, Vancouver, BC V6C 3A8", "city": "Vancouver", "country": "ca", "exchange": "TSE\/NYSE", "name": "Eldorado Gold Corporation", "region": null, "state": "British Columbia", "stock": "9.63 CDN", "symbol": "ELD\/EGO" }, "geometry": { "type": "Point", "coordinates": [ -123.1177375, 49.2857294 ] } },
{ "type": "Feature", "properties": { "add": null, "city": null, "country": null, "exchange": null, "name": "Elim Mining Incorporated", "region": null, "state": null, "stock": null, "symbol": null }, "geometry": null },
{ "type": "Feature", "properties": { "add": "595 Burrard St, Vancouver BC V7X 1K8", "city": "Vancouver", "country": "ca", "exchange": "TSX-Venture\/OTCQX", "name": "Ely Gold Royalties Inc.", "region": null, "state": "British Columbia", "stock": "0.48 CDN", "symbol": "ELY\/ELYGF" }, "geometry": { "type": "Point", "coordinates": [ -123.120916, 49.286551 ] } },
{ "type": "Feature", "properties": { "add": "543 Granville St, Vancouver, BC V6C 1X8", "city": "Vancouver", "country": "ca", "exchange": "TSX-Venture\/NYSE", "name": "EMX Royalty Corp.", "region": null, "state": "British Columbia", "stock": "2.45 CDN", "symbol": "EMX" }, "geometry": { "type": "Point", "coordinates": [ -123.115947, 49.284352 ] } },
{ "type": "Feature", "properties": { "add": "800 W Pender St, Vancouver, BC V6C 2V6", "city": "Vancouver", "country": "ca", "exchange": "TSX-Venture", "name": "Endurance Gold Corp", "region": null, "state": "British Columbia", "stock": "0.05 CDN", "symbol": "EDG" }, "geometry": { "type": "Point", "coordinates": [ -123.1164135, 49.2853994 ] } },
{ "type": "Feature", "properties": { "add": "543 Granville St, Vancouver, BC V6C 1X8", "city": "Vancouver", "country": "ca", "exchange": "TSX-Venture\/OTCQX", "name": "Energold Corp.", "region": null, "state": "British Columbia", "stock": "0.00 CDN", "symbol": "EGD\/EGDFF" }, "geometry": { "type": "Point", "coordinates": [ -123.115947, 49.284352 ] } },
{ "type": "Feature", "properties": { "add": "82 Richmond St E, Toronto, ON M5C 1P1", "city": "Toronto", "country": "ca", "exchange": "TSE", "name": "Energy Fuels Inc.", "region": null, "state": "Ontario", "stock": "2.16 CDN", "symbol": "EFR" }, "geometry": { "type": "Point", "coordinates": [ -79.3750388, 43.6526534 ] } },
{ "type": "Feature", "properties": { "add": "750 W Pender St, Vancouver, BC V6C 2T7", "city": "Vancouver", "country": "ca", "exchange": "TSX-Venture", "name": "Engineer Gold Mines Ltd", "region": null, "state": "British Columbia", "stock": "007 CDN", "symbol": "EAU " }, "geometry": { "type": "Point", "coordinates": [ -123.115356, 49.284971 ] } },
{ "type": "Feature", "properties": { "add": "1066 W Hastings St, Vancouver, BC V6E 3X1", "city": "Vancouver", "country": "ca", "exchange": "TSE\/OTCQX", "name": "Entrée Resources Ltd.", "region": null, "state": "British Columbia", "stock": "0.39 CDN", "symbol": "ETG\/ERLFF" }, "geometry": { "type": "Point", "coordinates": [ -123.118888, 49.287369 ] } },
{ "type": "Feature", "properties": { "add": "8331 Eastlake Dr, Burnaby, BC V5A 4W2", "city": "Burnaby", "country": "ca", "exchange": "CSE\/OTCQX\/FSE", "name": "EnviroLeach Technologies Inc.", "region": null, "state": "British Columbia", "stock": "1.20 CDN", "symbol": "ETI\/EVLLF\/7N2" }, "geometry": { "type": "Point", "coordinates": [ -122.9225798, 49.2577502 ] } },
{ "type": "Feature", "properties": { "add": "66 Hunter St, Sydney, NSW 2000", "city": "Sydney", "country": "au", "exchange": "Sydney (ASX)", "name": "Equus Mining Limited", "region": null, "state": "New South Wales", "stock": "0.02 AUS", "symbol": "EQE" }, "geometry": { "type": "Point", "coordinates": [ 151.210398700000013, -33.865989 ] } },
{ "type": "Feature", "properties": { "add": "99 Wyse Rd, Dartmouth, NS B3A 4S5", "city": "Halifax", "country": "ca", "exchange": "TSE\/MSE", "name": "Erdene Resource Development Corp.", "region": null, "state": "Nova Scotia", "stock": "0.23 CDN", "symbol": "ERD\/ERDN" }, "geometry": { "type": "Point", "coordinates": [ -63.576647, 44.668915 ] } },
{ "type": "Feature", "properties": { "add": "625 Howe St, Vancouver, BC V6C 2T6", "city": "Vancouver", "country": "ca", "exchange": "TSE", "name": "Ero Copper Corp.", "region": null, "state": "British Columbia", "stock": "18.80 CDN", "symbol": "ERO" }, "geometry": { "type": "Point", "coordinates": [ -123.117998, 49.284231 ] } },
{ "type": "Feature", "properties": { "add": "789 W Pender St, Vancouver, BC V6C 1H2", "city": "Vancouver", "country": "ca", "exchange": "TSX-Venture ", "name": "Eros Resources Corp.", "region": null, "state": "British Columbia", "stock": "0.10 CDN", "symbol": "ERC" }, "geometry": { "type": "Point", "coordinates": [ -123.115458, 49.285288 ] } },
{ "type": "Feature", "properties": { "add": "Bristol, UK BS34 9GT", "city": null, "country": "gb", "exchange": "private", "name": "E-Tech Metals", "region": null, "state": "England", "stock": null, "symbol": null }, "geometry": { "type": "Point", "coordinates": [ -2.570711, 51.533463 ] } },
{ "type": "Feature", "properties": { "add": "18 King St E, Toronto, ON M5C 1C4", "city": "Toronto", "country": "ca", "exchange": "TSX-Venture", "name": "Evergold Corp", "region": null, "state": "Ontario", "stock": "0.34 CDN", "symbol": "EVER" }, "geometry": { "type": "Point", "coordinates": [ -79.377094, 43.649535 ] } },
{ "type": "Feature", "properties": { "add": "850 W Hastings St, Vancouver, BC V6C 1E1", "city": "Vancouver", "country": "ca", "exchange": "TSX-Venture", "name": "Evrim Resources Corp.", "region": null, "state": "British Columbia", "stock": "0.32 CDN", "symbol": "EVM " }, "geometry": { "type": "Point", "coordinates": [ -123.1161579, 49.2862256 ] } },
{ "type": "Feature", "properties": { "add": "2999 North 44th St, Phoenix, AZ 85018", "city": "Phoenix", "country": "us", "exchange": "TSE\/OTCQX", "name": "Excelsior Mining Corp.", "region": null, "state": "Arizona", "stock": "1.13 CDN", "symbol": "MIN\/EXMGF" }, "geometry": { "type": "Point", "coordinates": [ -111.9868257, 33.5092104 ] } },
{ "type": "Feature", "properties": { "add": "25 Adelaide St E, Toronto, ON M5C 3A1", "city": "Toronto", "country": "ca", "exchange": null, "name": "Exiro Minerals Corp.", "region": null, "state": "Ontario", "stock": null, "symbol": null }, "geometry": { "type": "Point", "coordinates": [ -79.377392, 43.650491 ] } },
{ "type": "Feature", "properties": { "add": null, "city": null, "country": null, "exchange": null, "name": "Fiore Gold", "region": null, "state": null, "stock": null, "symbol": null }, "geometry": null },
{ "type": "Feature", "properties": { "add": "1021 W Hastings St, Vancouver, BC V6E 0C3", "city": "Vancouver", "country": "ca", "exchange": "TSX-Venture\/ FSE", "name": "FireFox Gold Corp.", "region": null, "state": "British Columbia", "stock": "0.08 CDN", "symbol": "FFOX\/A2PDU7" }, "geometry": { "type": "Point", "coordinates": [ -123.081309, 49.281117 ] } },
{ "type": "Feature", "properties": { "add": "925 W Georgia St, Vancouver, BC V6C3L2", "city": "Vancouver", "country": "ca", "exchange": "TSE\/NYSE\/Frankfurt", "name": "First Majestic Silver Corp.", "region": null, "state": "British Columbia", "stock": "13.80 CDN", "symbol": "FR\/AG\/FMV" }, "geometry": { "type": "Point", "coordinates": [ -123.111931, 49.269334 ] } },
{ "type": "Feature", "properties": { "add": "1188 W Georgia St, Vancouver, BC V6E 4A2", "city": "Vancouver", "country": "ca", "exchange": "TSE\/OTCQX", "name": "First Mining Gold Corp.", "region": null, "state": "British Columbia", "stock": "0.24 CDN", "symbol": "FF\/FFMGF" }, "geometry": { "type": "Point", "coordinates": [ -123.1255033, 49.2868278 ] } },
{ "type": "Feature", "properties": { "add": "1620 Dickson Ave, Kelowna, BC V1Y 9Y2", "city": "Kelowna", "country": "ca", "exchange": "TSE\/OTCQX\/FSE", "name": "Fission Uranium Corp.", "region": null, "state": "British Columbia", "stock": "0.28 CDN", "symbol": "FCU\/FCUUF\/2FU" }, "geometry": { "type": "Point", "coordinates": [ -119.461477, 49.880714 ] } },
{ "type": "Feature", "properties": { "add": "90 Adelaide St W, Toronto, ON M5H 3V9", "city": "Toronto", "country": "ca", "exchange": "TSX-Venture", "name": "Five Star Diamond Limited", "region": null, "state": "Ontario", "stock": "0.04 CDN", "symbol": "STAR" }, "geometry": { "type": "Point", "coordinates": [ -79.382027, 43.64983 ] } },
{ "type": "Feature", "properties": { "add": "945 Princess St, Kingston, ON K7L OE9", "city": "Kingston", "country": "ca", "exchange": "TSX-Venture", "name": "Focus Graphite Inc.", "region": null, "state": "Ontario", "stock": "0.02 CDN", "symbol": "FMS" }, "geometry": { "type": "Point", "coordinates": [ -76.4890995, 44.2325936 ] } },
{ "type": "Feature", "properties": { "add": "Alberdi 643, Rio Gallegos, Santa Cruz", "city": "Río Gallegos", "country": "ar", "exchange": null, "name": "Fomicruz S.E.", "region": null, "state": "Santa Cruz", "stock": null, "symbol": null }, "geometry": { "type": "Point", "coordinates": [ -69.21813, -51.62261 ] } },
{ "type": "Feature", "properties": { "add": "409 Granville St, Vancouver, BC V6C 1T2", "city": "Vancouver", "country": "ca", "exchange": "TSX-Venture", "name": "Foran Mining Corporation", "region": null, "state": "British Columbia", "stock": "0.26 CDN", "symbol": "FOM" }, "geometry": { "type": "Point", "coordinates": [ -123.1142912, 49.2853029 ] } },
{ "type": "Feature", "properties": { "add": "148 Fullarton St, London, ON N6A 5P3", "city": "London", "country": "ca", "exchange": "TSX-Venture", "name": "Fortune Minerals Limited", "region": null, "state": "Ontario", "stock": "0.08 CDN", "symbol": "FT" }, "geometry": { "type": "Point", "coordinates": [ -81.254891, 42.984319 ] } },
{ "type": "Feature", "properties": { "add": "800 W Pender St, Vancouver, BC V6C 2V6", "city": "Vancouver", "country": "ca", "exchange": "TSX-Venture", "name": "Forum Energy Metals Corp.", "region": null, "state": "British Columbia", "stock": "0.10 CDN", "symbol": "FMC" }, "geometry": { "type": "Point", "coordinates": [ -123.1164135, 49.2853994 ] } },
{ "type": "Feature", "properties": { "add": "1155 W Pender St, Vancouver, BC V6E 2P4", "city": "Vancouver", "country": "ca", "exchange": "TSX-Venture", "name": "FPX Nickel Corp.", "region": null, "state": "British Columbia", "stock": "0.16 CDN", "symbol": "FPX" }, "geometry": { "type": "Point", "coordinates": [ -123.1216649, 49.2880335 ] } },
{ "type": "Feature", "properties": { "add": "2736 Belisle Dr, Val Caron, ON P3N 1B3", "city": "Val Caron", "country": "ca", "exchange": "TSX-Venture", "name": "Frontier Lithium Inc.", "region": null, "state": "Ontario", "stock": "0.25 CDN", "symbol": "FL" }, "geometry": { "type": "Point", "coordinates": [ -81.02797, 46.60582 ] } },
{ "type": "Feature", "properties": { "add": "161 Bay St, Toronto, ON M5J 2S1", "city": "Toronto", "country": "ca", "exchange": "TSX-Venture", "name": "Galleon Gold Corp.", "region": null, "state": "Ontario", "stock": "0.08 CDN", "symbol": "GGO" }, "geometry": { "type": "Point", "coordinates": [ -79.3787741, 43.6469 ] } },
{ "type": "Feature", "properties": { "add": "82 Richmond St E, Toronto, ON M5C 1P1", "city": "Toronto", "country": "ca", "exchange": "TSX-Venture", "name": "Galway Metals Inc.", "region": null, "state": "Ontario", "stock": "0.30 CDN", "symbol": "GWM " }, "geometry": { "type": "Point", "coordinates": [ -79.3750388, 43.6526534 ] } },
{ "type": "Feature", "properties": { "add": "409 Granville St, Vancouver, BC V6C 1T2", "city": "Vancouver", "country": "ca", "exchange": "TSX-Venture\/OTCQX\/Frankfurt ", "name": "Garibaldi Resources Corp", "region": null, "state": "British Columbia", "stock": "0.71 CDN", "symbol": "GGI\/GGIFF\/RQM" }, "geometry": { "type": "Point", "coordinates": [ -123.1142912, 49.2853029 ] } },
{ "type": "Feature", "properties": { "add": "200 Burrard St, Vancouver BC V6C 3L6", "city": "Vancouver", "country": "ca", "exchange": "TSX-Venture\/OTCQX\/Frankfurt ", "name": "Gatling Exploration Inc.", "region": null, "state": "British Columbia", "stock": "0.47 CDN", "symbol": "GTR\/GATGF" }, "geometry": { "type": "Point", "coordinates": [ -123.1155926, 49.2876624 ] } },
{ "type": "Feature", "properties": { "add": "100 King St, Toronto, ON M5X 1B1", "city": "Toronto", "country": "ca", "exchange": "CSE", "name": "Generation Mining Limited", "region": null, "state": "Ontario", "stock": "0.66 CDN", "symbol": "GENM " }, "geometry": { "type": "Point", "coordinates": [ -79.5159334, 43.7058216 ] } },
{ "type": "Feature", "properties": { "add": "800 W Pender St, Vancouver, BC V6C 2V6", "city": "Vancouver", "country": "ca", "exchange": "TSX-Venture\/OTCQX\/Frankfurt ", "name": "Genesis Metals", "region": null, "state": "British Columbia", "stock": "0.40 CDN", "symbol": "GIS\/GGISF" }, "geometry": { "type": "Point", "coordinates": [ -123.1164135, 49.2853994 ] } },
{ "type": "Feature", "properties": { "add": "75 Boulevard de Mortagne, Boucherville, QC J4B 6Y4", "city": "Boucherville", "country": "ca", "exchange": "TSE", "name": "Geomega Resources Inc.", "region": null, "state": "Quebec", "stock": "0.17 CDN", "symbol": "GMA" }, "geometry": { "type": "Point", "coordinates": [ -73.430087, 45.596455 ] } },
{ "type": "Feature", "properties": { "add": "85 Hope Road, Kingston, Jamaica", "city": null, "country": "jm", "exchange": null, "name": "Geophysx Jamaica Ltd", "region": null, "state": null, "stock": null, "symbol": null }, "geometry": { "type": "Point", "coordinates": [ -76.7856529, 18.0166933 ] } },
{ "type": "Feature", "properties": { "add": "640 Broadway Ave, Saskatoon, SK S7N 1A9", "city": null, "country": "ca", "exchange": "TSX-Venture ", "name": "GFG Resources Inc.", "region": null, "state": "Saskatchewan", "stock": "0.17 CDN", "symbol": "GFG" }, "geometry": { "type": "Point", "coordinates": [ -106.6570299, 52.1193285 ] } },
{ "type": "Feature", "properties": { "add": "250 Howe St, Vancouver, BC V6C 3R8", "city": "Vancouver", "country": "ca", "exchange": null, "name": "Globe Trotters Resource Group Inc.", "region": null, "state": "British Columbia", "stock": null, "symbol": null }, "geometry": { "type": "Point", "coordinates": [ -123.113253, 49.286653 ] } },
{ "type": "Feature", "properties": { "add": "86 14th St, Rouyn-Noranda, QC J9X 2J1", "city": "Rouyn-Noranda", "country": "ca", "exchange": "TSE\/OTCQX\/Frankfurt", "name": "Globex Mining Enterprises Inc.", "region": null, "state": "Quebec", "stock": "0.35 CDN", "symbol": "GMX\/GLBXF\/G1MN" }, "geometry": { "type": "Point", "coordinates": [ -79.030639, 48.244068 ] } },
{ "type": "Feature", "properties": { "add": null, "city": null, "country": null, "exchange": null, "name": "Globmine LLP", "region": null, "state": null, "stock": null, "symbol": null }, "geometry": null },
{ "type": "Feature", "properties": { "add": "1090 West Georgia St, Vancouver, BC V6E 3V7", "city": "Vancouver", "country": "ca", "exchange": "TSX-Venture ", "name": "GMV Minerals Inc.", "region": null, "state": "British Columbia", "stock": "0.16 CDN", "symbol": "GMV " }, "geometry": { "type": "Point", "coordinates": [ -123.123296, 49.285369 ] } },
{ "type": "Feature", "properties": { "add": "1111 Melville St, Vancouver, BC V6E 3V6", "city": "Vancouver", "country": "ca", "exchange": "CSE", "name": "Go Metals Corp.", "region": null, "state": "British Columbia", "stock": "0.05 CDN", "symbol": "GOCO" }, "geometry": { "type": "Point", "coordinates": [ -123.122136, 49.286786 ] } },
{ "type": "Feature", "properties": { "add": "200 Burrard St, Vancouver BC V6C 3L6", "city": "Vancouver", "country": "ca", "exchange": "multiple", "name": "Gold Group Management Inc.", "region": null, "state": "British Columbia", "stock": "multiple", "symbol": "multiple" }, "geometry": { "type": "Point", "coordinates": [ -123.1155926, 49.2876624 ] } },
{ "type": "Feature", "properties": { "add": "580 Hornby St, Vancouver, BC V6C 3B6", "city": "Vancouver", "country": "ca", "exchange": "TSX-Venture ", "name": "Gold Springs Resource Corp.", "region": null, "state": "British Columbia", "stock": "0.12 CDN", "symbol": "GRC" }, "geometry": { "type": "Point", "coordinates": [ -123.117909, 49.285199 ] } },
{ "type": "Feature", "properties": { "add": null, "city": null, "country": null, "exchange": null, "name": "Gold Terra Resource Corp.", "region": null, "state": null, "stock": null, "symbol": null }, "geometry": null },
{ "type": "Feature", "properties": { "add": "837 W Hastings St, Vancouver, BC V6C 3N6", "city": "W Vancouver", "country": "ca", "exchange": "TSX-Venture ", "name": "Golden Arrow Resources", "region": null, "state": "British Columbia", "stock": "0.16 CDN", "symbol": "GRG " }, "geometry": { "type": "Point", "coordinates": [ -123.115131, 49.286164 ] } },
{ "type": "Feature", "properties": { "add": "688 W Hastings St, Vancouver, BC V6B 1P1", "city": "Vancouver", "country": "ca", "exchange": "TSX-Venture ", "name": "Golden Goliath Resources Ltd.", "region": null, "state": "British Columbia", "stock": "0.07 CDN", "symbol": "GNG " }, "geometry": { "type": "Point", "coordinates": [ -123.1136946, 49.2849614 ] } },
{ "type": "Feature", "properties": { "add": "350 Indiana St, Golden, CO 80401", "city": "Golden", "country": "us", "exchange": "TSE\/NYSE", "name": "Golden Minerals Company", "region": null, "state": "Colorado", "stock": "0.34 CDN", "symbol": "AUMN" }, "geometry": { "type": "Point", "coordinates": [ -105.1643438, 39.7210527 ] } },
{ "type": "Feature", "properties": { "add": "200 Burrard St, Vancouver, BC V6C 3L6", "city": "Vancouver", "country": "ca", "exchange": "TSX-Venture ", "name": "Golden Predator Mining Corp.", "region": null, "state": "British Columbia", "stock": "0.29 CDN", "symbol": "GPY" }, "geometry": { "type": "Point", "coordinates": [ -123.1155926, 49.2876624 ] } },
{ "type": "Feature", "properties": { "add": "150 King St W, Toronto, ON M5H 1J9", "city": "Toronto", "country": "ca", "exchange": "TSE\/NYSE", "name": "Golden Star Resources Limited", "region": null, "state": "Ontario", "stock": "3.90 CDN", "symbol": "GSC\/GSS" }, "geometry": { "type": "Point", "coordinates": [ -79.3840045, 43.648024 ] } },
{ "type": "Feature", "properties": { "add": "1030 W Georgia St, Vancouver, BC V6E 2Y3", "city": "Vancouver", "country": "ca", "exchange": "TSE\/SPOT\/OTCQX", "name": "GoldMining Inc.", "region": null, "state": "British Columbia", "stock": "1.54 CDN", "symbol": "GOLD\/GOLD\/GLDLF" }, "geometry": { "type": "Point", "coordinates": [ -123.122024, 49.284541 ] } },
{ "type": "Feature", "properties": { "add": "38 Avenue Rd Toronto, ON M5R 2G2", "city": "Toronto", "country": "ca", "exchange": "TSE\/NASDAQ", "name": "Goldmoney Inc.", "region": null, "state": "Ontario", "stock": "1.85 CDN", "symbol": "XAU\/XAUMF" }, "geometry": { "type": "Point", "coordinates": [ -79.3949093, 43.6700887 ] } },
{ "type": "Feature", "properties": { "add": "133 Richmond St W, Toronto, ON M5H 2L3", "city": "Toronto", "country": "ca", "exchange": "TSX-Venture ", "name": "GoldQuest Mining Corp.", "region": null, "state": "Ontario", "stock": "0.14 CDN", "symbol": "GQC" }, "geometry": { "type": "Point", "coordinates": [ -79.3849675, 43.6502576 ] } },
{ "type": "Feature", "properties": { "add": "570 Granville St, Vancouver, BC V6C 3P1", "city": "Vancouver", "country": "ca", "exchange": "TSX-Venture ", "name": "Goldsource Mines Inc.", "region": null, "state": "British Columbia", "stock": "0.08 CDN", "symbol": "GXS " }, "geometry": { "type": "Point", "coordinates": [ -123.115659, 49.28372 ] } },
{ "type": "Feature", "properties": { "add": "69 Yonge St, Toronto, ON M5E 1K3", "city": "Toronto", "country": "ca", "exchange": "TSX-Venture ", "name": "Goldspot Discoveries Inc.", "region": null, "state": "Ontario", "stock": "0.20 CDN", "symbol": "SPOT" }, "geometry": { "type": "Point", "coordinates": [ -79.3776658, 43.649079 ] } },
{ "type": "Feature", "properties": { "add": "171 Donald St, Winnipeg, MB R3C 1M4", "city": "Winnipeg", "country": "ca", "exchange": "TSX-Venture\/Frankfurt-Freiverkehr & Xetra Exchanges", "name": "Gossan Resources Limited", "region": null, "state": "Manitoba", "stock": "0.06 CDN", "symbol": "GSS\/GSR" }, "geometry": { "type": "Point", "coordinates": [ -97.141018, 49.889921 ] } },
{ "type": "Feature", "properties": { "add": "80 Richmond St W, Toronto, ON M5H 2A4", "city": "Toronto", "country": "ca", "exchange": "TSX-Venture ", "name": "Gowest Gold Ltd.", "region": null, "state": "Ontario", "stock": "0.22 CDN", "symbol": "GWA " }, "geometry": { "type": "Point", "coordinates": [ -79.382156, 43.651237 ] } },
{ "type": "Feature", "properties": { "add": "999 W Hastings St, Vancouver, BC V6C 2W2", "city": "Vancouver", "country": "ca", "exchange": "TSE\/OTCQX", "name": "GR Sliver Mining Ltd.", "region": null, "state": "British Columbia", "stock": "0.23 CDN", "symbol": "GRSL\/GRSLF" }, "geometry": { "type": "Point", "coordinates": [ -123.11651, 49.287199 ] } },
{ "type": "Feature", "properties": { "add": "401 Bay St, Toronto, ON M5H 2Y4", "city": "Toronto", "country": "ca", "exchange": "TSE\/OTCQX", "name": "Gran Colombia Gold Corp.", "region": null, "state": "Ontario", "stock": "5.54 CDN", "symbol": "GCM\/TPRFF" }, "geometry": { "type": "Point", "coordinates": [ -79.381295, 43.651186 ] } },
{ "type": "Feature", "properties": { "add": "345 Chemin Castors Rouyn-Noranda, QC J9Y 0E7", "city": "Rouyn-Noranda", "country": "ca", "exchange": null, "name": "Greg Exploration Inc.", "region": null, "state": "Quebec", "stock": null, "symbol": null }, "geometry": { "type": "Point", "coordinates": [ -79.023769, 48.304296 ] } },
{ "type": "Feature", "properties": { "add": "3335 Yonge St, Toronto, ON M4N 2M1", "city": "Toronto", "country": "ca", "exchange": "TSX-Venture ", "name": "Grid Metals Corp.", "region": null, "state": "Ontario", "stock": "0.15 CDN", "symbol": "GRDM " }, "geometry": { "type": "Point", "coordinates": [ -79.404213, 43.731613 ] } },
{ "type": "Feature", "properties": { "add": "170 St NW, Edmonton, AB T5T 5L4", "city": "Edmonton", "country": "ca", "exchange": "TSX-Venture\/OTCQB\/FWB", "name": "Grizzly Discoveries Inc.", "region": null, "state": "Alberta", "stock": "0.03 CDN", "symbol": "GZD\/GZDIF\/G6H" }, "geometry": { "type": "Point", "coordinates": [ -113.616225, 53.534899 ] } },
{ "type": "Feature", "properties": { "add": "666 Burrard St, Vancouver, BC V6C 3P6", "city": "Vancouver", "country": "ca", "exchange": "TSX-Venture ", "name": "GT Gold Corp.", "region": null, "state": "British Columbia", "stock": "1.45 CDN", "symbol": "GTT " }, "geometry": { "type": "Point", "coordinates": [ -123.119374, 49.285073 ] } },
{ "type": "Feature", "properties": { "add": "827 Beaufort St, Mount Lawley, WA 6052", "city": "Perth", "country": "au", "exchange": "Sydney (ASX)", "name": "Hammer Metals Ltd", "region": null, "state": "Western Australia", "stock": "0.02 AUS", "symbol": "HMX" }, "geometry": { "type": "Point", "coordinates": [ 115.8820047, -31.9247437 ] } },
{ "type": "Feature", "properties": { "add": "789 W Pender St, Vancouver, BC V6C 1H2", "city": "Vancouver", "country": "ca", "exchange": "TSX-Venture ", "name": "Happy Creek Minerals Ltd.", "region": null, "state": "British Columbia", "stock": "0.08 CDN", "symbol": "HPY " }, "geometry": { "type": "Point", "coordinates": [ -123.115458, 49.285288 ] } },
{ "type": "Feature", "properties": { "add": "1100 Avenue des Canadiens-de-Montréal, Montréal, QC H3B 2S2", "city": "Montreal", "country": "ca", "exchange": "TSX-Venture ", "name": "Harfang Exploration Inc.", "region": null, "state": "Quebec", "stock": "0.25 CDN", "symbol": "HAR" }, "geometry": { "type": "Point", "coordinates": [ -73.569304, 45.497154 ] } },
{ "type": "Feature", "properties": { "add": "161 Bay St, Toronto, ON M5J2S1", "city": "Toronto", "country": "ca", "exchange": "TSE\/OTCQX\/Frankfurt", "name": "Harte Gold Corp.", "region": null, "state": "Ontario", "stock": "0.15 CDN", "symbol": "HRT\/HRTFF\/H4O" }, "geometry": { "type": "Point", "coordinates": [ -79.378658, 43.646924 ] } },
{ "type": "Feature", "properties": { "add": "800 W Pender St, Vancouver, BC V6C 2V6", "city": "Vancouver", "country": "ca", "exchange": "NYSE", "name": "Hecla Mining Company", "region": null, "state": "British Columbia", "stock": "3.06 USD", "symbol": "HL" }, "geometry": { "type": "Point", "coordinates": [ -123.1164135, 49.2853994 ] } },
{ "type": "Feature", "properties": { "add": "999 Canada Place, Vancouver, BC V6C 3E1", "city": "Vancouver", "country": "ca", "exchange": "(See partner companies) ", "name": "High Power Exploration", "region": null, "state": "British Columbia", "stock": null, "symbol": null }, "geometry": { "type": "Point", "coordinates": [ -123.114011, 49.287912 ] } },
{ "type": "Feature", "properties": { "add": "800 W Pender St, Vancouver, BC V6C 2V6", "city": "Vancouver", "country": "ca", "exchange": "TSX-Venture\/OTCQB", "name": "HighGold Mining Inc", "region": null, "state": "British Columbia", "stock": "1.13 CDN", "symbol": "HIGH\/HGGOF" }, "geometry": { "type": "Point", "coordinates": [ -123.1164135, 49.2853994 ] } },
{ "type": "Feature", "properties": { "add": "3000 Rue Omer Lavallée, Montréal, QC H1Y 3R8", "city": "Montreal", "country": "ca", "exchange": "TSX-Venture ", "name": "HPQ Silicon Resources", "region": null, "state": "Quebec", "stock": "0.08 CDN", "symbol": "HPQ" }, "geometry": { "type": "Point", "coordinates": [ -73.561484, 45.545607 ] } },
{ "type": "Feature", "properties": { "add": "1639 W 2nd Ave, Vancouver, BC V6J 1H3", "city": "Vancouver", "country": "ca", "exchange": "TSX-Venture\/OTCQB", "name": "Hudson Resources Inc.", "region": null, "state": "British Columbia", "stock": "0.21 CDN", "symbol": "HUD\/HUDRF" }, "geometry": { "type": "Point", "coordinates": [ -123.141806, 49.26977 ] } },
{ "type": "Feature", "properties": { "add": "401 Bay St, Toronto, ON M5H 2Y4", "city": "Toronto", "country": "ca", "exchange": "TSE\/NYSE", "name": "IAMGOLD Corporation", "region": null, "state": "Ontario", "stock": "3.98  CDN", "symbol": "IMG\/IAG" }, "geometry": { "type": "Point", "coordinates": [ -79.381295, 43.651186 ] } },
{ "type": "Feature", "properties": { "add": "543 Granville St, Vancouver, BC V6C 1X8", "city": "Vancouver", "country": "ca", "exchange": "TSX-Venture\/Frankfurt", "name": "Impact Silver Corp.", "region": null, "state": "British Columbia", "stock": "0.43 CDN", "symbol": "IPT\/IKL" }, "geometry": { "type": "Point", "coordinates": [ -123.115947, 49.284352 ] } },
{ "type": "Feature", "properties": { "add": "1140 W Pender, Vancouver, BC V6E 4G1", "city": "W Vancouver", "country": "ca", "exchange": "TSX-Venture ", "name": "Inca One Gold Corp.", "region": null, "state": "British Columbia", "stock": "0.18 CDN", "symbol": "IO" }, "geometry": { "type": "Point", "coordinates": [ -123.121997, 49.287711 ] } },
{ "type": "Feature", "properties": { "add": "625 Howe St, Vancouver, BC, V6C 2T6", "city": "Vancouver", "country": "ca", "exchange": "TSX-Venture ", "name": "Independence Gold Corp.", "region": null, "state": "British Columbia", "stock": "0.06 CDN", "symbol": "IGO " }, "geometry": { "type": "Point", "coordinates": [ -123.117998, 49.284231 ] } },
{ "type": "Feature", "properties": { "add": "400 Burrard St, Vancouver, BC V6C 3A6", "city": "Vancouver", "country": "ca", "exchange": "TSX-Venture\/OTCQX ", "name": "Integra Resources Corp.", "region": null, "state": "British Columbia", "stock": "1.32 CDN", "symbol": "ITR\/IRRZF" }, "geometry": { "type": "Point", "coordinates": [ -123.117075, 49.286617 ] } },
{ "type": "Feature", "properties": { "add": "20 Sixth St, New Westminster, BC V3L 2Y8", "city": "Vancouver", "country": "ca", "exchange": "TSX-Venture ", "name": "International Millennium Mining Corp.", "region": null, "state": "British Columbia", "stock": "0.03 CDN", "symbol": "IMI" }, "geometry": { "type": "Point", "coordinates": [ -122.908447, 49.203426 ] } },
{ "type": "Feature", "properties": { "add": "140 Arthur St, North Sydney, NSW 2060", "city": "Sydney", "country": "au", "exchange": "Sydney (ASX)", "name": "ioneer", "region": null, "state": "New South Wales", "stock": "0.18 AUS", "symbol": "INR" }, "geometry": { "type": "Point", "coordinates": [ 151.209664299999986, -33.8410486 ] } },
{ "type": "Feature", "properties": { "add": "1055 W Hastings St, Vancouver, BC V6E 2E9", "city": "Vancouver", "country": "ca", "exchange": "TSX-Venture\/OTCQX ", "name": "IsoEnergy Ltd.", "region": null, "state": "British Columbia", "stock": "0.38 CDN", "symbol": "ISO\/ISENF" }, "geometry": { "type": "Point", "coordinates": [ -123.118268, 49.2877658 ] } },
{ "type": "Feature", "properties": { "add": "999 Canada Place Vancouver, BC V6C3E1", "city": "Vancouver", "country": "ca", "exchange": "TSE\/OTCQX", "name": "Ivanhoe Mines", "region": null, "state": "British Columbia", "stock": "3.42 CDN", "symbol": "IVN\/IVPAF" }, "geometry": { "type": "Point", "coordinates": [ -123.114011, 49.287912 ] } },
{ "type": "Feature", "properties": { "add": "100 King St W, Toronto, ON M5X 1C9", "city": "Toronto", "country": "ca", "exchange": "TSE\/OTCQX", "name": "Jaguar Mining Inc.", "region": null, "state": "Ontario", "stock": "0.22 CDN", "symbol": "JAG\/JAGEF" }, "geometry": { "type": "Point", "coordinates": [ -79.471126, 43.669022 ] } },
{ "type": "Feature", "properties": { "add": "40 Harbour St, Kingston", "city": "Kingston", "country": "jm", "exchange": null, "name": "Jamaica Stock Exchange", "region": null, "state": null, "stock": null, "symbol": null }, "geometry": { "type": "Point", "coordinates": [ -76.7872205, 17.9652966 ] } },
{ "type": "Feature", "properties": { "add": "62 Ord St, West Perth WA 6005", "city": "Perth", "country": "au", "exchange": "Sydney (ASX)", "name": "Jameson Resources Limited", "region": null, "state": "Western Australia", "stock": "0.19 CDN", "symbol": "JAL " }, "geometry": { "type": "Point", "coordinates": [ 115.8365073, -31.9488579 ] } },
{ "type": "Feature", "properties": { "add": "669 Howe St, Vancouver, BC V6C 0B4", "city": "Vancouver", "country": "ca", "exchange": "TSX-Venture\/OTCQX ", "name": "Japan Gold Corp.", "region": null, "state": "British Columbia", "stock": "0.27 CDN", "symbol": "JG\/JGLDF" }, "geometry": { "type": "Point", "coordinates": [ -123.118381, 49.283911 ] } },
{ "type": "Feature", "properties": { "add": "1090 W Georgia St, Vancouver, BC V6E 3V7", "city": "Vancouver", "country": "ca", "exchange": "TSX-Venture ", "name": "K92 Mining Inc.", "region": null, "state": "British Columbia", "stock": "3.85 CDN", "symbol": "KNT" }, "geometry": { "type": "Point", "coordinates": [ -123.123296, 49.285369 ] } },
{ "type": "Feature", "properties": { "add": "Silas Ramjan St, Labasa", "city": "Labasa", "country": "fj", "exchange": "Private ", "name": "Kalo Exploration Ltd", "region": null, "state": "Northern", "stock": null, "symbol": null }, "geometry": { "type": "Point", "coordinates": [ 179.3741655, -16.4285246 ] } },
{ "type": "Feature", "properties": { "add": "27\/28 Eastcastle St, London, UK W1W 8DH", "city": "London", "country": "gb", "exchange": "London (AIM) ", "name": "Keras Resources plc", "region": null, "state": "England", "stock": "0.17 GBX", "symbol": "KRS" }, "geometry": { "type": "Point", "coordinates": [ -0.138541, 51.516716 ] } },
{ "type": "Feature", "properties": { "add": "18 King St, Toronto, ON M5C 1C4", "city": "Toronto", "country": "ca", "exchange": "TSE\/OTCQX", "name": "Kerr Mines Inc.", "region": null, "state": "Ontario", "stock": "0.15 CDN", "symbol": "KER\/KERMF" }, "geometry": { "type": "Point", "coordinates": [ -79.377094, 43.649535 ] } },
{ "type": "Feature", "properties": { "add": "278 Bay St, Thunder Bay, ON P7B 1R8", "city": "Thunder Bay", "country": "ca", "exchange": "TSX-Venture ", "name": "Kesselrun Resources Ltd.", "region": null, "state": "Ontario", "stock": "0.05 CDN", "symbol": "KES" }, "geometry": { "type": "Point", "coordinates": [ -89.228801, 48.431667 ] } },
{ "type": "Feature", "properties": { "add": "20 Bond St, Sydney, NSW 2000", "city": "Sydney", "country": "au", "exchange": "Sydney (ASX)", "name": "Kingsgate Consolidated Limited", "region": null, "state": "New South Wales", "stock": "0.56 AUS ", "symbol": "KCN" }, "geometry": { "type": "Point", "coordinates": [ 151.208495199999987, -33.8643523 ] } },
{ "type": "Feature", "properties": { "add": "25 York St, Toronto, ON M5J 2V5", "city": "Toronto", "country": "ca", "exchange": "TSE\/NYSE", "name": "Kinross Gold Corporation", "region": null, "state": "Ontario", "stock": "6.71 CDN", "symbol": "K\/KCG" }, "geometry": { "type": "Point", "coordinates": [ -79.3812452, 43.6433721 ] } },
{ "type": "Feature", "properties": { "add": "200 Bay St, Toronto, ON M5J 2J1", "city": "Toronto", "country": "ca", "exchange": "TSE\/NYSE\/Sydney(ASX) ", "name": "Kirkland Lake Gold Ltd.", "region": null, "state": "Ontario", "stock": "54.27 CDN", "symbol": "KL\/KLA " }, "geometry": { "type": "Point", "coordinates": [ -79.3803017, 43.6466411 ] } },
{ "type": "Feature", "properties": { "add": "750 W Pender St, Vancouver, BC V6C 2T7", "city": "Vancouver", "country": "ca", "exchange": "TSX-Venture\/FSE", "name": "Klondike Silver Corp.", "region": null, "state": "British Columbia", "stock": "0.04 CDN", "symbol": "KS\/K1SN" }, "geometry": { "type": "Point", "coordinates": [ -123.115356, 49.284971 ] } },
{ "type": "Feature", "properties": { "add": null, "city": null, "country": null, "exchange": null, "name": "Kootenay Silver Inc.", "region": null, "state": null, "stock": null, "symbol": null }, "geometry": null },
{ "type": "Feature", "properties": { "add": "Skeppargatan 27, 114 52 Stockholm", "city": "Stockholm", "country": "se", "exchange": "FRA", "name": "Kopy Goldfields AB", "region": null, "state": "Stockholm County", "stock": "0.10 Euros", "symbol": "0KR" }, "geometry": { "type": "Point", "coordinates": [ 18.0832053, 59.3345018 ] } },
{ "type": "Feature", "properties": { "add": "1030 W Georgia St, Vancouver, BC V6E 2Y3", "city": "Vancouver", "country": "ca", "exchange": "TSX-Venture\/OTCQX ", "name": "Kutcho Copper Corp.", "region": null, "state": "British Columbia", "stock": "0.20 CDN", "symbol": "KC\/KCCFF" }, "geometry": { "type": "Point", "coordinates": [ -123.122024, 49.284541 ] } },
{ "type": "Feature", "properties": { "add": "543 Granville St, Vancouver, BC V6C 1X8", "city": "Vancouver", "country": "ca", "exchange": "TSX-Venture", "name": "Lara Exploration Ltd.", "region": null, "state": "British Columbia", "stock": "0.59 CDN", "symbol": "LRA" }, "geometry": { "type": "Point", "coordinates": [ -123.115947, 49.284352 ] } },
{ "type": "Feature", "properties": { "add": "55 University Ave, Toronto, ON M5J 2H7", "city": "Toronto", "country": "ca", "exchange": "TSE\/OTCQX", "name": "Largo Resources Ltd.", "region": null, "state": "Ontario", "stock": "1.05 CDN", "symbol": "LSO\/LGORF" }, "geometry": { "type": "Point", "coordinates": [ -79.38401, 43.646957 ] } },
{ "type": "Feature", "properties": { "add": "1177 W Hastings St, Vancouver, BC V6E 2K3", "city": "Vancouver", "country": "ca", "exchange": "TSX-Venture", "name": "Latin Metals Inc.", "region": null, "state": "British Columbia", "stock": "0.12 CDN", "symbol": "LMS" }, "geometry": { "type": "Point", "coordinates": [ -123.119792, 49.287988 ] } },
{ "type": "Feature", "properties": { "add": "40 King St W, Toronto, ON M5H 3S1", "city": "The Junction", "country": "ca", "exchange": "TSX-Venture\/OTCPINK", "name": "Laurion Mineral Exploration Inc.", "region": null, "state": "Ontario", "stock": "0.17 CDN", "symbol": "LME\/LMEFF" }, "geometry": { "type": "Point", "coordinates": [ -79.379566, 43.649479 ] } },
{ "type": "Feature", "properties": { "add": "1090 W Georgia St, Vancouver, BC V6E 3V7", "city": "Vancouver", "country": "ca", "exchange": "TSX-Venture\/OTCQB\/NASDAQ First North", "name": "Leading Edge Materials Corp.", "region": null, "state": "British Columbia", "stock": "0.10 CDN", "symbol": "LEM\/LEMIF\/LEMSE" }, "geometry": { "type": "Point", "coordinates": [ -123.123296, 49.285369 ] } },
{ "type": "Feature", "properties": { "add": "595 Burrard St, Vancouver, BC V7X 1J1", "city": "Vancouver", "country": "ca", "exchange": "TSE", "name": "Leagold Mining Corporation", "region": null, "state": "British Columbia", "stock": "3.59 CDN", "symbol": "LMC " }, "geometry": { "type": "Point", "coordinates": [ -123.011694, 49.210523 ] } },
{ "type": "Feature", "properties": { "add": "55 University Ave, Toronto, ON M5J 2H7", "city": "Toronto", "country": "ca", "exchange": "Sydney (ASX)", "name": "Lepidico Ltd.", "region": null, "state": "Ontario", "stock": "0.01 AUS", "symbol": "LPD " }, "geometry": { "type": "Point", "coordinates": [ -79.38401, 43.646957 ] } },
{ "type": "Feature", "properties": { "add": "1111 W Hastings St, Vancouver, BC V6E 2J3", "city": "W Vancouver", "country": "ca", "exchange": "TSX-Venture ", "name": "Libero Copper", "region": null, "state": "British Columbia", "stock": "0.07 CDN", "symbol": "LBC" }, "geometry": { "type": "Point", "coordinates": [ -123.081061, 49.281127 ] } },
{ "type": "Feature", "properties": { "add": "1055 W Hastings St, Vancouver, BC V6E 2E9", "city": "Vancouver", "country": "ca", "exchange": "TSE\/OTCQX", "name": "Liberty Gold Corp.", "region": null, "state": "British Columbia", "stock": "1.21 CDN", "symbol": "LGD\/LGDTF" }, "geometry": { "type": "Point", "coordinates": [ -123.118268, 49.2877658 ] } },
{ "type": "Feature", "properties": { "add": "267 W Esplanade, North Vancouver, BC V7M 1A5", "city": "North Vancouver", "country": "ca", "exchange": "TSX-Venture\/OTCQX\/Sydney ASX", "name": "Lion One Metals", "region": null, "state": "British Columbia", "stock": "1.65 CDN", "symbol": "LIO\/LOMLF\/LLO" }, "geometry": { "type": "Point", "coordinates": [ -123.083435, 49.312787 ] } },
{ "type": "Feature", "properties": { "add": "7184 120th St, Surrey, BC V3W 0M6", "city": "Vancouver", "country": "ca", "exchange": "TSX-Venture\/OTCQX", "name": "Lomiko Metals Inc.", "region": null, "state": "British Columbia", "stock": "0.04 CDN", "symbol": "LMR\/LMRMF" }, "geometry": { "type": "Point", "coordinates": [ -122.890114, 49.133745 ] } },
{ "type": "Feature", "properties": { "add": "12 Old Mills Industrial Estate, Paulton, Bristol, England, BS39 7SU", "city": "Bath and North East Somerset", "country": "gb", "exchange": null, "name": "Longland Resources Ltd", "region": "South West England", "state": "England", "stock": null, "symbol": null }, "geometry": { "type": "Point", "coordinates": [ -2.502342, 51.291783 ] } },
{ "type": "Feature", "properties": { "add": "625 Howe St, Vancouver, BC V6C 2T6", "city": "Vancouver", "country": "ca", "exchange": "TSX-Venture\/OTCQX", "name": "Lumina Group, The", "region": null, "state": "British Columbia", "stock": "0.07 CDN", "symbol": "LUM\/LMGDF" }, "geometry": { "type": "Point", "coordinates": [ -123.117998, 49.284231 ] } },
{ "type": "Feature", "properties": { "add": "885 W Georgia St, Vancouver, BC V6C 3E8", "city": "W Vancouver", "country": "ca", "exchange": null, "name": "Lundin Group", "region": null, "state": "British Columbia", "stock": null, "symbol": null }, "geometry": { "type": "Point", "coordinates": [ -123.119665, 49.28369 ] } },
{ "type": "Feature", "properties": { "add": "595 Burrard St, Vancouver, BC V7X 1K8", "city": "Vancouver", "country": "ca", "exchange": "TSX-Venture\/OTCQX", "name": "Mako Mining Corp.", "region": null, "state": "British Columbia", "stock": "0.39 CDN", "symbol": "MKO\/MAKOF" }, "geometry": { "type": "Point", "coordinates": [ -123.120916, 49.286551 ] } },
{ "type": "Feature", "properties": { "add": "Boulevard Al Massira Al Khadra, Casablanca 20100", "city": "Casablanca", "country": "ma", "exchange": "CSE ", "name": "MANAGEM Group", "region": "Casablanca-Settat", "state": null, "stock": "851,50 MAD", "symbol": "MNG" }, "geometry": { "type": "Point", "coordinates": [ -7.6393407, 33.5870115 ] } },
{ "type": "Feature", "properties": { "add": "76 Richmond St E, Toronto, ON M5C 1P1", "city": "Toronto", "country": "ca", "exchange": "TSE ", "name": "Mandalay Resources Corp.", "region": null, "state": "Ontario", "stock": "1.00 CDN", "symbol": "MND" }, "geometry": { "type": "Point", "coordinates": [ -79.3752557, 43.6526051 ] } },
{ "type": "Feature", "properties": { "add": "1199 W Hastings St, Vancouver, BC V6E 3T5", "city": "Vancouver", "country": "ca", "exchange": null, "name": "Manex Resource Group Inc.", "region": null, "state": "British Columbia", "stock": null, "symbol": null }, "geometry": { "type": "Point", "coordinates": [ -123.122234, 49.288927 ] } },
{ "type": "Feature", "properties": { "add": "145 Rue Graveline, Saint-Laurent QC H4T 1R3", "city": "Montreal", "country": "ca", "exchange": "TSX-Venture\/FWBF", "name": "Manganese X Energy Corp.", "region": null, "state": "Quebec", "stock": "0.10 CDN", "symbol": "MN\/9SC2" }, "geometry": { "type": "Point", "coordinates": [ -73.703663, 45.474315 ] } },
{ "type": "Feature", "properties": { "add": "82 Richmond St E, Toronto, ON M5C 1P1", "city": "Toronto", "country": "ca", "exchange": "TSX-Venture", "name": "Manitou Gold Inc.", "region": null, "state": "Ontario", "stock": "0.06 CDN", "symbol": "MTU" }, "geometry": { "type": "Point", "coordinates": [ -79.3750388, 43.6526534 ] } },
{ "type": "Feature", "properties": { "add": "10 King St E, Toronto, ON M5C 1C3", "city": "Toronto", "country": "ca", "exchange": "TSE\/OTCQX", "name": "Marathon Gold Corporation", "region": null, "state": "Ontario", "stock": "1.56 CDN", "symbol": "MOZ\/MGDPF" }, "geometry": { "type": "Point", "coordinates": [ -79.521192, 43.700727 ] } },
{ "type": "Feature", "properties": { "add": null, "city": null, "country": null, "exchange": null, "name": "Market Making Services Inc.", "region": null, "state": null, "stock": null, "symbol": null }, "geometry": null },
{ "type": "Feature", "properties": { "add": "1090 W Georgia St, Vancouver, BC V6E 3V7", "city": "Vancouver", "country": "ca", "exchange": "TSE\/FSE\/PK", "name": "Mawson Resources Limited", "region": null, "state": "British Columbia", "stock": "0.28 CDN", "symbol": "MAW\/MXR\/MWSNF" }, "geometry": { "type": "Point", "coordinates": [ -123.123296, 49.285369 ] } },
{ "type": "Feature", "properties": { "add": "1250 René Lévesque, Montreal, QC H3B 4W8 ", "city": "Montreal", "country": "ca", "exchange": "TSE ", "name": "Maya Gold & Silver Inc.", "region": "Montreal (06)", "state": "Quebec", "stock": "1.80 CDN", "symbol": "MYA" }, "geometry": { "type": "Point", "coordinates": [ -73.564593, 45.5070453 ] } },
{ "type": "Feature", "properties": { "add": "150 King St W, Toronto, ON M5H 1J9", "city": "Toronto", "country": "ca", "exchange": "TSE ", "name": "McEwen Mining Inc.", "region": null, "state": "Ontario", "stock": "1.46 CDN", "symbol": "MUX" }, "geometry": { "type": "Point", "coordinates": [ -79.3840045, 43.648024 ] } },
{ "type": "Feature", "properties": { "add": "1550 Bedford Hwy, Bedford, NS B4A 1E6", "city": "Halifax", "country": "ca", "exchange": "CNSX\/OTCMKTS\/FWB", "name": "MegumaGold", "region": null, "state": "Nova Scotia", "stock": "0.15 CDN", "symbol": "NSAU\/NSAUF\/2CM2" }, "geometry": { "type": "Point", "coordinates": [ -63.657547, 44.732176 ] } },
{ "type": "Feature", "properties": { "add": null, "city": null, "country": null, "exchange": null, "name": "Meridian Credit Union", "region": null, "state": null, "stock": null, "symbol": null }, "geometry": null },
{ "type": "Feature", "properties": { "add": "409 Granville St, Vancouver, BC V6C 1T2", "city": "Vancouver", "country": "ca", "exchange": "See companies ", "name": "Metallic Group of Companies", "region": null, "state": "British Columbia", "stock": null, "symbol": null }, "geometry": { "type": "Point", "coordinates": [ -123.1142912, 49.2853029 ] } },
{ "type": "Feature", "properties": { "add": "945 Cobalt Crescent, Thunder Bay, ON P7B 5Z4", "city": "Thunder Bay", "country": "ca", "exchange": "TSX-Venture", "name": "Metals Creek Resources Corp.", "region": null, "state": "Ontario", "stock": "0.06 CDN", "symbol": "MEK" }, "geometry": { "type": "Point", "coordinates": [ -89.255868, 48.409789 ] } },
{ "type": "Feature", "properties": { "add": "Edmonton, AB", "city": null, "country": "ca", "exchange": "See companies ", "name": "Metals Group Inc.", "region": null, "state": "Alberta", "stock": null, "symbol": null }, "geometry": { "type": "Point", "coordinates": [ -113.507996, 53.535411 ] } },
{ "type": "Feature", "properties": { "add": "999 W Hastings St, Vancouver, BC V6C 2W2", "city": "Vancouver", "country": "ca", "exchange": "TSE", "name": "Midas Gold Corp.", "region": null, "state": "British Columbia", "stock": "0.57 CDN", "symbol": "MAX" }, "geometry": { "type": "Point", "coordinates": [ -123.11651, 49.287199 ] } },
{ "type": "Feature", "properties": { "add": "1 Place Ville Marie, Montréal, QC H3B 4M4", "city": "Quebec", "country": "ca", "exchange": "TSX-Venture", "name": "Midland Exploration Inc.", "region": null, "state": "Quebec", "stock": "0.80 CDN", "symbol": "MD " }, "geometry": { "type": "Point", "coordinates": [ -71.203896, 46.898199 ] } },
{ "type": "Feature", "properties": { "add": "1177 W Hastings St, Vancouver, BC V6E 2K3", "city": "Vancouver", "country": "ca", "exchange": "TSX-Venture\/OTCQB\/Frankfurt", "name": "Millennial Lithium Corp.", "region": null, "state": "British Columbia", "stock": "1.48 CDN", "symbol": "ML\/MLNLF\/A3N2" }, "geometry": { "type": "Point", "coordinates": [ -123.119792, 49.287988 ] } },
{ "type": "Feature", "properties": { "add": "1177 W Hastings St, Vancouver, BC V6E 2K3", "city": "Vancouver", "country": "ca", "exchange": "TSX-Venture\/OTCQX\/Frankfurt ", "name": "Minaurum Gold Inc.", "region": null, "state": "British Columbia", "stock": "0.47 CDN", "symbol": "MGG\/MMRGF\/78M" }, "geometry": { "type": "Point", "coordinates": [ -123.119792, 49.287988 ] } },
{ "type": "Feature", "properties": { "add": "55 York St, Toronto, ON M5J 1R7", "city": "Toronto", "country": "ca", "exchange": "TSX-Venture", "name": "Minera Alamos Inc.", "region": null, "state": "Ontario", "stock": "0.27 CDN", "symbol": "MAI" }, "geometry": { "type": "Point", "coordinates": [ -79.382568, 43.646194 ] } },
{ "type": "Feature", "properties": { "add": "Avenida Apoquindo 4775, Las Condes, Región Metropolitana", "city": "Las Condes", "country": "cl", "exchange": "TSE (Sprott)", "name": "Minera Tres Valles", "region": null, "state": "Santiago Metropolitan Region", "stock": "0.69 CDN", "symbol": "SRHI  " }, "geometry": { "type": "Point", "coordinates": [ -70.5796451, -33.4128877 ] } },
{ "type": "Feature", "properties": { "add": "1195 W Broadway, Vancouver, BC V6H 3X5", "city": "Vancouver", "country": "ca", "exchange": "TSX-Venture", "name": "Mineral Mountain Resources Ltd.", "region": null, "state": "British Columbia", "stock": "0.37 CDN", "symbol": "MMV" }, "geometry": { "type": "Point", "coordinates": [ -123.131126, 49.263617 ] } },
{ "type": "Feature", "properties": { "add": "Istanbul", "city": "Istanbul", "country": "tr", "exchange": null, "name": "Mira Stone Ltd", "region": null, "state": "Marmara Region", "stock": null, "symbol": null }, "geometry": { "type": "Point", "coordinates": [ 28.9651646, 41.0096334 ] } },
{ "type": "Feature", "properties": { "add": "355 Burrard St, Vancouver BC V6C 2G8", "city": "Vancouver", "country": "ca", "exchange": "TSX-Venture", "name": "Mirasol Resources Ltd.", "region": null, "state": "British Columbia", "stock": "0.50 CDN", "symbol": "MRZ " }, "geometry": { "type": "Point", "coordinates": [ -123.116591, 49.288158 ] } },
{ "type": "Feature", "properties": { "add": "Douala", "city": "Douala", "country": "cm", "exchange": null, "name": "Mississauga Mining", "region": null, "state": "Littoral", "stock": null, "symbol": null }, "geometry": { "type": "Point", "coordinates": [ 9.706203, 4.0429408 ] } },
{ "type": "Feature", "properties": { "add": "550 Burrard St, Vancouver, BC V6C 0A3", "city": "Vancouver", "country": "ca", "exchange": "TSX-Venture\/London", "name": "Mkango Resources", "region": null, "state": "British Columbia", "stock": "0.12 CDN", "symbol": "MKA" }, "geometry": { "type": "Point", "coordinates": [ -123.118287, 49.285718 ] } },
{ "type": "Feature", "properties": { "add": "68 Ave de la Gare, Saint-Sauveur, QC J0R 1R0", "city": "Saint-Sauveur", "country": "ca", "exchange": "TSX-Venture\/RF", "name": "Monarques Gold Corporation", "region": null, "state": "Quebec", "stock": "0.18 CDN", "symbol": "MQR" }, "geometry": { "type": "Point", "coordinates": [ -74.161289, 45.89289 ] } },
{ "type": "Feature", "properties": { "add": "65 3rd Ave Timmins, ON P4N 1C2", "city": "Timmins", "country": "ca", "exchange": "TSE", "name": "Moneta Porcupine Mines Inc.", "region": null, "state": "Ontario", "stock": "0.12 CDN", "symbol": "ME" }, "geometry": { "type": "Point", "coordinates": [ -81.33368, 48.474917 ] } },
{ "type": "Feature", "properties": { "add": "1040 W Georgia St, Vancouver, BC V6E 4H3", "city": "Vancouver", "country": "ca", "exchange": "TSX-Venture", "name": "Montero Mining & Exploration Ltd.", "region": null, "state": "British Columbia", "stock": "0.02 CDN", "symbol": "MON" }, "geometry": { "type": "Point", "coordinates": [ -123.065613, 49.27838 ] } },
{ "type": "Feature", "properties": { "add": "1100 Melville St, Vancouver, BC V6E 4A6", "city": "Vancouver", "country": "ca", "exchange": "TSX-Venture\/FSE", "name": "Monument Mining Limited", "region": null, "state": "British Columbia", "stock": "0.04 CDN", "symbol": "MMY\/D7Q1" }, "geometry": { "type": "Point", "coordinates": [ -123.122297, 49.286903 ] } },
{ "type": "Feature", "properties": { "add": "13400 Butlers Rd, Amelia Court House, VA 23002", "city": "Amelia Court House", "country": "us", "exchange": null, "name": "Morefield Gem Mine, Inc.", "region": null, "state": "Virginia", "stock": null, "symbol": null }, "geometry": { "type": "Point", "coordinates": [ -77.918405, 37.358245 ] } },
{ "type": "Feature", "properties": { "add": "1701 Hollis St, Halifax, NS B3J 3M8", "city": "Halifax", "country": "ca", "exchange": "TSX-Venture", "name": "Morien Resources Corp.", "region": null, "state": "Nova Scotia", "stock": "0.61 CDN", "symbol": "MOX" }, "geometry": { "type": "Point", "coordinates": [ -63.572433, 44.6473 ] } },
{ "type": "Feature", "properties": { "add": "Carrera 30 #10 Medellín, Antioquia", "city": "Medellín", "country": "co", "exchange": "https:\/\/www.emis.com\/php\/company-profile\/CO\/Morocota_Gold_SAS_en_3522586.html", "name": "Morocota Gold SAS", "region": null, "state": "Antioquia", "stock": null, "symbol": null }, "geometry": { "type": "Point", "coordinates": [ -75.5563173, 6.2344815 ] } },
{ "type": "Feature", "properties": { "add": "20 Toronto St, Toronto, ON M5C 2B8", "city": "Toronto", "country": "ca", "exchange": null, "name": "Moydow Resources Limited", "region": null, "state": "Ontario", "stock": null, "symbol": null }, "geometry": { "type": "Point", "coordinates": [ -79.509489, 43.595608 ] } },
{ "type": "Feature", "properties": { "add": "1040 W Georgia St, Vancouver, BC V6E 4H1", "city": "Vancouver", "country": "ca", "exchange": "TSX-Venture ", "name": "Mundoro Capital Inc.", "region": null, "state": "British Columbia", "stock": "0.16 CDN", "symbol": "MUN" }, "geometry": { "type": "Point", "coordinates": [ -123.082129, 49.27799 ] } },
{ "type": "Feature", "properties": { "add": "120 Adelaide St W, Toronto, ON M5H 1P9", "city": "Toronto", "country": "ca", "exchange": "TSX-Venture ", "name": "Murchison Minerals Ltd.", "region": null, "state": "Ontario", "stock": "0.13 CDN", "symbol": "MUR " }, "geometry": { "type": "Point", "coordinates": [ -79.383202, 43.650013 ] } },
{ "type": "Feature", "properties": { "add": "401 Bay St, Toronto, ON M5H 2Y4", "city": "Toronto", "country": "ca", "exchange": "TSX-Venture\/OTCQX\/FSE", "name": "Neo Lithium Corp.", "region": null, "state": "Ontario", "stock": "0.79 CDN", "symbol": "NLC\/NTTHF0\/NE" }, "geometry": { "type": "Point", "coordinates": [ -79.381295, 43.651186 ] } },
{ "type": "Feature", "properties": { "add": "100 W Liberty St, Reno, NV 89501", "city": "Reno", "country": "us", "exchange": "TSE", "name": "Nevada Copper Corp.", "region": null, "state": "Nevada", "stock": "0.31 CDN", "symbol": "NCU" }, "geometry": { "type": "Point", "coordinates": [ -119.8127282, 39.5211384 ] } },
{ "type": "Feature", "properties": { "add": "885 W Georgia St, Vancouver, BC V6C 3E8", "city": "W Vancouver", "country": "ca", "exchange": "TSX-Venture\/OTCQB", "name": "Nevada Exploration Inc.", "region": null, "state": "British Columbia", "stock": "0.33 CDN", "symbol": "NGE\/NVDEF  " }, "geometry": { "type": "Point", "coordinates": [ -123.119665, 49.28369 ] } },
{ "type": "Feature", "properties": { "add": "59 Burtch's Lane, Rockport, ON K0E 1V0", "city": "Thousand Islands", "country": "ca", "exchange": null, "name": "New Age Metals", "region": null, "state": "Ontario", "stock": null, "symbol": null }, "geometry": { "type": "Point", "coordinates": [ -75.931397, 44.381018 ] } },
{ "type": "Feature", "properties": { "add": "69 Yonge St, Toronto, ON M5E 1K3", "city": "Toronto", "country": "ca", "exchange": "See Parents ", "name": "New Found Gold Corp", "region": null, "state": "Ontario", "stock": null, "symbol": null }, "geometry": { "type": "Point", "coordinates": [ -79.3776658, 43.649079 ] } },
{ "type": "Feature", "properties": { "add": "181 Bay St, Toronto, ON M5J 2T3", "city": "Toronto", "country": "ca", "exchange": "TSE\/NYSE", "name": "New Gold Inc.", "region": null, "state": "Ontario", "stock": "1.11 CDN", "symbol": "NGD " }, "geometry": { "type": "Point", "coordinates": [ -79.3786735, 43.6465062 ] } },
{ "type": "Feature", "properties": { "add": "1066 W Hastings St, Vancouver, BC V6E 3X1", "city": "Vancouver", "country": "ca", "exchange": "TSX-Venture\/OTCQX", "name": "New Pacific Metals Corp.", "region": null, "state": "British Columbia", "stock": "5.74 CDN", "symbol": "NUAG\/NUPMF" }, "geometry": { "type": "Point", "coordinates": [ -123.118888, 49.287369 ] } },
{ "type": "Feature", "properties": { "add": "600 St Kilda Rd, Melbourne VIC 3004", "city": null, "country": "au", "exchange": "Sydney (ASX)", "name": "Newcrest Mining Ltd.", "region": null, "state": "Victoria", "stock": "28.99 AUS", "symbol": "NCM " }, "geometry": { "type": "Point", "coordinates": [ 144.9763639, -37.8358215 ] } },
{ "type": "Feature", "properties": { "add": "6363 South Fiddler’s Green Circle, Greenwood Village, CO 80111", "city": "Greenwood Village", "country": "us", "exchange": "TSE\/NYSE", "name": "Newmont Corporation", "region": null, "state": "Colorado", "stock": "58.52 CDN", "symbol": "NGT\/NEM " }, "geometry": { "type": "Point", "coordinates": [ -104.8924948, 39.6014032 ] } },
{ "type": "Feature", "properties": { "add": "580 Hornby St, Vancouver, BC V6C 3B6", "city": "Vancouver", "country": "ca", "exchange": "TSX-Venture\/OTC", "name": "Newrange Gold Corp.", "region": null, "state": "British Columbia", "stock": "0.13 CDN", "symbol": "NRG\/NRGOF" }, "geometry": { "type": "Point", "coordinates": [ -123.117909, 49.285199 ] } },
{ "type": "Feature", "properties": { "add": "37A Ave J-F Kennedy, 1855 Luxembourg", "city": "Luxembourg", "country": "lu", "exchange": "TSE\/NYSE", "name": "Nexa Resources S.A.", "region": null, "state": "District de Luxembourg", "stock": "10.46 CDN", "symbol": "NEXA" }, "geometry": { "type": "Point", "coordinates": [ 6.13, 49.61167 ] } },
{ "type": "Feature", "properties": { "add": "355 Burrard St, Vancouver, BC V6C 2G8", "city": "Vancouver", "country": "ca", "exchange": "TSX-Venture", "name": "Nicola Mining Inc.", "region": null, "state": "British Columbia", "stock": "0.10 CDN", "symbol": "NIM " }, "geometry": { "type": "Point", "coordinates": [ -123.116591, 49.288158 ] } },
{ "type": "Feature", "properties": { "add": "1111 St Charles W, Longueuil, QC J4K 5G4", "city": "Longueuil", "country": "ca", "exchange": "TSX-Venture", "name": "NioBay Metals Inc.", "region": null, "state": "Quebec", "stock": "0.40 CDN", "symbol": "NBY" }, "geometry": { "type": "Point", "coordinates": [ -73.515155, 45.518331 ] } },
{ "type": "Feature", "properties": { "add": "212 King St W, Toronto, ON M5H 1K5", "city": "Toronto", "country": "ca", "exchange": "TSX-Venture", "name": "Noront Resources Ltd.", "region": null, "state": "Ontario", "stock": "0.17 CDN", "symbol": "NOT" }, "geometry": { "type": "Point", "coordinates": [ -79.425351, 43.633695 ] } },
{ "type": "Feature", "properties": { "add": "789 West Pender St, Vancouver, BC V6C 1H2", "city": "Vancouver", "country": "ca", "exchange": "TSX-Venture", "name": "North Arrow Minerals Inc.", "region": null, "state": "British Columbia", "stock": "0.05 CDN", "symbol": "NAR " }, "geometry": { "type": "Point", "coordinates": [ -123.115458, 49.285288 ] } },
{ "type": "Feature", "properties": { "add": "1040 W Georgia St, Vancouver, BC V6E 4H1", "city": "Vancouver", "country": "ca", "exchange": "TSE\/NYSE", "name": "Northern Dynasty Minerals Ltd.", "region": null, "state": "British Columbia", "stock": "0.57 CDN", "symbol": "NDM\/NAK" }, "geometry": { "type": "Point", "coordinates": [ -123.082129, 49.27799 ] } },
{ "type": "Feature", "properties": { "add": "290 Picton Ave, Ottawa, ON K1Z 8P8", "city": "Ottawa", "country": "ca", "exchange": "TSX-Venture", "name": "Northern Graphite Corporation", "region": null, "state": "Ontario", "stock": "0.15 CDN", "symbol": "NGC" }, "geometry": { "type": "Point", "coordinates": [ -75.75204, 45.393513 ] } },
{ "type": "Feature", "properties": { "add": "55 Metcalfe St, Ottawa, ON K1P 6L5", "city": "Ottawa", "country": "ca", "exchange": "TSX-Venture", "name": "Northern Shield Resources Inc.", "region": null, "state": "Ontario", "stock": "0.09 CDN", "symbol": "NRN" }, "geometry": { "type": "Point", "coordinates": [ -75.6960834, 45.4221069 ] } },
{ "type": "Feature", "properties": { "add": "1351 C Kelly Lake Rd, Sudbury, ON P3E 5P5", "city": "Sudbury", "country": "ca", "exchange": "TSX-Venture", "name": "Northern Superior Resources Inc.", "region": null, "state": "Ontario", "stock": "0.19 CDN", "symbol": "SUP" }, "geometry": { "type": "Point", "coordinates": [ -81.03243, 46.465996 ] } },
{ "type": "Feature", "properties": { "add": "1075 W Georgia St, Vancouver BC V6E 3C9", "city": "Vancouver", "country": "ca", "exchange": "TSX-Venture\/OTC-Nasdaq", "name": "Northern Vertex Mining Corp.", "region": null, "state": "British Columbia", "stock": "0.26 CDN", "symbol": "NEE\/NHVCF" }, "geometry": { "type": "Point", "coordinates": [ -123.122205, 49.28587 ] } },
{ "type": "Feature", "properties": { "add": "17 Wellington St N, New Liskeard, ON P0J 1P0", "city": "Temiskaming Shores", "country": "ca", "exchange": "CSE", "name": "Northstar Gold Corp.", "region": null, "state": "Ontario", "stock": "0.30 CDN", "symbol": "NSG " }, "geometry": { "type": "Point", "coordinates": [ -79.6729344, 47.5100585 ] } },
{ "type": "Feature", "properties": { "add": "650 W Georgia St, Vancouver, BC V6B 4N9", "city": "Vancouver", "country": "ca", "exchange": "TSE", "name": "NorZinc Ltd", "region": null, "state": "British Columbia", "stock": "0.08 CDN", "symbol": "NZC" }, "geometry": { "type": "Point", "coordinates": [ -123.117503, 49.281938 ] } },
{ "type": "Feature", "properties": { "add": "331 Rue Brassard, Saint-Michel-des-Saints,  QC, J0K 3B0", "city": null, "country": "ca", "exchange": "TSX-Venture", "name": "Nouveau Monde Graphite", "region": "Lanaudière", "state": "Quebec", "stock": "0.24 CDN", "symbol": "NOU" }, "geometry": { "type": "Point", "coordinates": [ -73.9169723, 46.6786059 ] } },
{ "type": "Feature", "properties": { "add": "400 Burrard St, Vancouver, BC V6C 3A6", "city": "Vancouver", "country": "ca", "exchange": "TSE\/NYSE", "name": "Novagold Resources Inc.", "region": null, "state": "British Columbia", "stock": "11.62 CDN", "symbol": "NG" }, "geometry": { "type": "Point", "coordinates": [ -123.117075, 49.286617 ] } },
{ "type": "Feature", "properties": { "add": "357 Collins St, Melbourne VIC 3000", "city": null, "country": "au", "exchange": "TSE", "name": "OceanaGold Corporation", "region": null, "state": "Victoria", "stock": "2.47 CDN", "symbol": "OGC" }, "geometry": { "type": "Point", "coordinates": [ 144.954144500000012, -37.8189955 ] } },
{ "type": "Feature", "properties": { "add": "Hinton, AB T7V 1X8", "city": "Hinton", "country": "ca", "exchange": "TSX-Venture", "name": "Olivut Resources Ltd.", "region": null, "state": "Alberta", "stock": "0.05 CDN", "symbol": "OLV" }, "geometry": { "type": "Point", "coordinates": [ -117.581653, 53.403815 ] } },
{ "type": "Feature", "properties": { "add": "4710 Saint-Ambroise St, Montreal, QC H4C 2C7", "city": "Montreal", "country": "ca", "exchange": "TSX-Venture", "name": "Opus One Resources Inc.", "region": null, "state": "Quebec", "stock": "0.05 CDN", "symbol": "OOR " }, "geometry": { "type": "Point", "coordinates": [ -73.5806, 45.475697 ] } },
{ "type": "Feature", "properties": { "add": "55 University Ave, Toronto, ON M5J 2H7", "city": "Toronto", "country": "ca", "exchange": "TSX-Venture", "name": "Orefinders Resources Inc.", "region": null, "state": "Ontario", "stock": "0.05 CDN", "symbol": "ORX " }, "geometry": { "type": "Point", "coordinates": [ -79.38401, 43.646957 ] } },
{ "type": "Feature", "properties": { "add": "325 Howe St Vancouver, BC V6C 1Z7", "city": "Vancouver", "country": "ca", "exchange": "TSX-Venture\/OTC", "name": "Orestone Mining Corp", "region": null, "state": "British Columbia", "stock": "0.11 CDN", "symbol": "ORS\/ORSF" }, "geometry": { "type": "Point", "coordinates": [ -123.11437, 49.286518 ] } },
{ "type": "Feature", "properties": { "add": "1111 Melville St Vancouver, BC V6E 3V6", "city": "Vancouver", "country": "ca", "exchange": "TSX-Venture", "name": "Orezone Gold Corporation", "region": null, "state": "British Columbia", "stock": "0.44 CDN", "symbol": "ORE" }, "geometry": { "type": "Point", "coordinates": [ -123.122136, 49.286786 ] } },
{ "type": "Feature", "properties": { "add": "141 Adelaide St W, Toronto, ON M5H 3L5", "city": "Toronto", "country": "ca", "exchange": "TSX-Venture", "name": "Orford Mining Corp.", "region": null, "state": "Ontario", "stock": "0.04  CDN", "symbol": "ORM" }, "geometry": { "type": "Point", "coordinates": [ -79.404066, 43.644554 ] } },
{ "type": "Feature", "properties": { "add": "595 Howe St, Vancouver, BC V6C 2T5", "city": "Vancouver", "country": "ca", "exchange": "TSE", "name": "Orla Mining Ltd.", "region": null, "state": "British Columbia", "stock": "2.43 CDN", "symbol": "OLA " }, "geometry": { "type": "Point", "coordinates": [ -123.117446, 49.284596 ] } },
{ "type": "Feature", "properties": { "add": "34 Colin St, West Perth WA 6005", "city": "Perth", "country": "au", "exchange": "Sydney (ASX)", "name": "Oro Verde Limited", "region": null, "state": "Western Australia", "stock": "0.008 AUS", "symbol": "OVL" }, "geometry": { "type": "Point", "coordinates": [ 115.8414839, -31.9506404 ] } },
{ "type": "Feature", "properties": { "add": "Palm Grove House, Wickhams Clay Road Town, Tortola", "city": "Tortola", "country": "vg", "exchange": "TSX-Venture", "name": "Orsu Metals Corporation", "region": null, "state": null, "stock": "0.22 CDN", "symbol": "OSU " }, "geometry": { "type": "Point", "coordinates": [ -64.60382, 18.43882 ] } },
{ "type": "Feature", "properties": { "add": "70 York St, Toronto, ON M5J 1S9", "city": "Toronto", "country": "ca", "exchange": "TSE", "name": "Orvana Minerals Corp.", "region": null, "state": "Ontario", "stock": "0.24 CDN", "symbol": "ORV " }, "geometry": { "type": "Point", "coordinates": [ -79.3832611, 43.6467492 ] } },
{ "type": "Feature", "properties": { "add": "789 West Pender St, Vancouver, BC V6C 1H2", "city": "Vancouver", "country": "ca", "exchange": "TSX-Venture\/FSE", "name": "Osino Resources Corp.", "region": null, "state": "British Columbia", "stock": "0.82 CDN", "symbol": "OSI\/R2R1" }, "geometry": { "type": "Point", "coordinates": [ -123.115458, 49.285288 ] } },
{ "type": "Feature", "properties": { "add": "1100 Ave des Canadiens-de-Montreal, Montreal, QC H3B 2S2", "city": "Montreal", "country": "ca", "exchange": "TSE\/NYSE", "name": "Osisko Gold Royalties Ltd.", "region": null, "state": "Quebec", "stock": "12.80 CDN", "symbol": "OR" }, "geometry": { "type": "Point", "coordinates": [ -73.569304, 45.497154 ] } },
{ "type": "Feature", "properties": { "add": "100 Ave des Canadiens-de-Montreal, Montreal, QC H3B 2S2", "city": "Montreal", "country": "ca", "exchange": "TSE", "name": "Osisko Metals Incorporated", "region": null, "state": "Quebec", "stock": "0.51 CDN", "symbol": "OM " }, "geometry": { "type": "Point", "coordinates": [ -73.569304, 45.497154 ] } },
{ "type": "Feature", "properties": { "add": "300 Vesey St, New York, NY 10282", "city": "New York", "country": "us", "exchange": "OTCMKTS", "name": "OTC Markets Group", "region": null, "state": "New York", "stock": "34.55 USD", "symbol": "OTCM " }, "geometry": { "type": "Point", "coordinates": [ -74.0169568, 40.7144302 ] } },
{ "type": "Feature", "properties": { "add": "161 Bay St, Toronto, ON M5J 2S1", "city": "Toronto", "country": "ca", "exchange": "TSX-Venture", "name": "Otso Gold Corp.", "region": null, "state": "Ontario", "stock": "0.08 CDN", "symbol": "OTSO " }, "geometry": { "type": "Point", "coordinates": [ -79.3787741, 43.6469 ] } },
{ "type": "Feature", "properties": { "add": "850 W Hastings St, Vancouver, BC V6C 1E1", "city": "Vancouver", "country": "ca", "exchange": "TSX-Venture\/OTCQB", "name": "Pacific Empire Minerals Corp.", "region": null, "state": "British Columbia", "stock": "0.05 CDN", "symbol": "PEMC\/PEMSF" }, "geometry": { "type": "Point", "coordinates": [ -123.1161579, 49.2862256 ] } },
{ "type": "Feature", "properties": { "add": "19-23 Clarinda Rd, Oakleigh South, VIC 3167", "city": null, "country": "au", "exchange": null, "name": "Pacific Trends Resources Pty Ltd", "region": null, "state": "Victoria", "stock": null, "symbol": null }, "geometry": { "type": "Point", "coordinates": [ 145.0992668, -37.9336306 ] } },
{ "type": "Feature", "properties": { "add": "200 Burrard St, Vancouver, BC V6C 3L6", "city": "Vancouver", "country": "ca", "exchange": "TSX-Venture\/OTC", "name": "Pacton Gold Inc.", "region": null, "state": "British Columbia", "stock": "0.10 CDN", "symbol": "PAC\/PACXF" }, "geometry": { "type": "Point", "coordinates": [ -123.1155926, 49.2876624 ] } },
{ "type": "Feature", "properties": { "add": "145 King St W, Toronto, ON M5H 1J8", "city": "Toronto", "country": "ca", "exchange": "TSX-Venture\/OTC", "name": "Palamina Corp.", "region": null, "state": "Ontario", "stock": "0.22 CDN", "symbol": "PA\/PLMNF" }, "geometry": { "type": "Point", "coordinates": [ -79.387868, 43.647262 ] } },
{ "type": "Feature", "properties": { "add": "800 West Pender St, Vancouver, BC V6C 2V6", "city": "Vancouver", "country": "ca", "exchange": "TSX-Venture\/OTC\/Frankfurt", "name": "Palladium One", "region": null, "state": "British Columbia", "stock": "0.17 CDN", "symbol": "PDM\/NKORF\/7N11" }, "geometry": { "type": "Point", "coordinates": [ -123.1164135, 49.2853994 ] } },
{ "type": "Feature", "properties": { "add": "217 Queen St W, Toronto, ON M5V 0R2", "city": "Toronto", "country": "ca", "exchange": "TSX-Venture", "name": "Pancontinental Resources Corporation", "region": null, "state": "Ontario", "stock": "0.05 CDN", "symbol": "PUC" }, "geometry": { "type": "Point", "coordinates": [ -79.3877342, 43.6505004 ] } },
{ "type": "Feature", "properties": { "add": "North Fremantle, WA 6159", "city": "Fremantle", "country": "au", "exchange": null, "name": "Panda Mining Pty Ltd", "region": null, "state": "Western Australia", "stock": null, "symbol": null }, "geometry": { "type": "Point", "coordinates": [ 115.7549789, -32.0327438 ] } },
{ "type": "Feature", "properties": { "add": "700 West Pender St, Vancouver, BC V6C 1G8", "city": "Vancouver", "country": "ca", "exchange": "TSX-Venture\/BVL\/Borse\/OTC", "name": "Panoro Minerals Ltd.", "region": null, "state": "British Columbia", "stock": "0.08 CDN", "symbol": "PML\/PML\/PZN\/POROF" }, "geometry": { "type": "Point", "coordinates": [ -123.1154498, 49.2846592 ] } },
{ "type": "Feature", "properties": { "add": "2 Duke St, Marylebone, London, UK W1U 3EH", "city": "London", "country": "gb", "exchange": "London (AIM) ", "name": "Panthera Resources Plc", "region": null, "state": "England", "stock": "5.00 GBX", "symbol": "PAT" }, "geometry": { "type": "Point", "coordinates": [ -0.152587, 51.516173 ] } },
{ "type": "Feature", "properties": { "add": null, "city": null, "country": null, "exchange": null, "name": "Patagonia Exploracion S.A.", "region": null, "state": null, "stock": null, "symbol": null }, "geometry": null },
{ "type": "Feature", "properties": { "add": null, "city": null, "country": null, "exchange": null, "name": "Pavey Ark Minerals Inc.", "region": null, "state": null, "stock": null, "symbol": null }, "geometry": null },
{ "type": "Feature", "properties": { "add": "1\/34 Kings Park Rd, West Perth, WA 6005", "city": "Perth", "country": "au", "exchange": "Sydney (ASX)", "name": "Peel Mining Ltd.", "region": null, "state": "Western Australia", "stock": "0.23 AUS", "symbol": "PEX " }, "geometry": { "type": "Point", "coordinates": [ 115.8425473, -31.9534247 ] } },
{ "type": "Feature", "properties": { "add": "82 Richmond St E, Toronto, ON M5C 1P1", "city": "Toronto", "country": "ca", "exchange": "TSX-Venture", "name": "Pelangio Exploration Inc.", "region": null, "state": "Ontario", "stock": "0.14 CDN", "symbol": "PX" }, "geometry": { "type": "Point", "coordinates": [ -79.3750388, 43.6526534 ] } },
{ "type": "Feature", "properties": { "add": "380 Wellington St, London, ON N6A 5B5", "city": "London", "country": "ca", "exchange": "CSE\/OTCQB", "name": "Peloton Minerals Corporation", "region": null, "state": "Ontario", "stock": "0.09 CDN", "symbol": "PMC\/PMCC" }, "geometry": { "type": "Point", "coordinates": [ -81.231038, 42.961584 ] } },
{ "type": "Feature", "properties": { "add": "141 Adelaide St W, Toronto, ON, M5H 3L5", "city": "Toronto", "country": "ca", "exchange": "TSX-Venture\/OTCQB", "name": "Plateau Energy Metals Inc.", "region": null, "state": "Ontario", "stock": "0.27 CDN", "symbol": "PLU\/PLUUF" }, "geometry": { "type": "Point", "coordinates": [ -79.404066, 43.644554 ] } },
{ "type": "Feature", "properties": { "add": "470 Granville St, Vancouver, BC V6C 1V5", "city": "Vancouver", "country": "ca", "exchange": "TSX-Venture", "name": "Playfair Mining Ltd.", "region": null, "state": "British Columbia", "stock": "0.03 CDN", "symbol": "PLY " }, "geometry": { "type": "Point", "coordinates": [ -123.1142086, 49.2846008 ] } },
{ "type": "Feature", "properties": { "add": "100 King St W, Toronto, ON M5X 1C7", "city": "Toronto", "country": "ca", "exchange": "TSE\/NYSE", "name": "PolyMet Mining Corp.", "region": null, "state": "Ontario", "stock": "0.36 CDN", "symbol": "POM\/PLM" }, "geometry": { "type": "Point", "coordinates": [ -79.3816918, 43.6487681 ] } },
{ "type": "Feature", "properties": { "add": "470 Granville St, Vancouver, BC V6C 1V5", "city": "Vancouver", "country": "ca", "exchange": "TSX-Venture\/FSE", "name": "Portofino Resources Inc.", "region": null, "state": "British Columbia", "stock": "0.04 CDN", "symbol": "POR\/POT" }, "geometry": { "type": "Point", "coordinates": [ -123.1142086, 49.2846008 ] } },
{ "type": "Feature", "properties": { "add": "55 University Ave, Toronto, ON M5J 2H7", "city": "Toronto", "country": "ca", "exchange": "TSX-Venture", "name": "Power Ore Inc.", "region": null, "state": "Ontario", "stock": "0.06 CDN", "symbol": "PORE" }, "geometry": { "type": "Point", "coordinates": [ -79.38401, 43.646957 ] } },
{ "type": "Feature", "properties": { "add": null, "city": null, "country": null, "exchange": null, "name": "PPX Mining Corp.", "region": null, "state": null, "stock": null, "symbol": null }, "geometry": null },
{ "type": "Feature", "properties": { "add": "1100 Russell St, Thunder Bay, ON P7B 5N2", "city": "Thunder Bay", "country": "ca", "exchange": "TSE", "name": "Premier Gold Mines Limited", "region": null, "state": "Ontario", "stock": "1.52 CDN", "symbol": "PG" }, "geometry": { "type": "Point", "coordinates": [ -89.254509, 48.402074 ] } },
{ "type": "Feature", "properties": { "add": null, "city": null, "country": null, "exchange": "See: TSX TR", "name": "Privateer Gold", "region": null, "state": null, "stock": null, "symbol": null }, "geometry": null },
{ "type": "Feature", "properties": { "add": "56 Temperance St, Toronto, ON M5H 3V5", "city": "Toronto", "country": "ca", "exchange": "TSX-Venture", "name": "Probe Metals Inc.", "region": null, "state": "Ontario", "stock": "1.17 CDN", "symbol": "PRB " }, "geometry": { "type": "Point", "coordinates": [ -79.381758, 43.650618 ] } },
{ "type": "Feature", "properties": { "add": null, "city": null, "country": null, "exchange": null, "name": "Prolific Mining Corp.", "region": null, "state": null, "stock": null, "symbol": null }, "geometry": null },
{ "type": "Feature", "properties": { "add": "409 Granville St, Vancouver BC V6C 1T2", "city": "Vancouver", "country": "ca", "exchange": "TSE\/OTC\/Frankfurt", "name": "Prophecy Development Corp.", "region": null, "state": "British Columbia", "stock": "0.26 CDN", "symbol": "PCY\/PRPCF\/1P2N" }, "geometry": { "type": "Point", "coordinates": [ -123.1142912, 49.2853029 ] } },
{ "type": "Feature", "properties": { "add": "1040 W Georgia St, Vancouver, BC V6E 4H1", "city": "Vancouver", "country": "ca", "exchange": "According to Mr. Zuker, Pucara plans to go public in Toronto on the TSX, and they have some pretty significant shareholders, like Resource Capital Funds, Sandstorm Gold Ltd, and Alamos Gold Inc http:\/\/www.metalsnews.com\/Metals+News\/MetalsNews\/Allen+Alper+Jr.,+President,+Metals+News+Inc.\/FEATURED1265635\/Interview+with+Steve+Zuker+President++CEO+of+Pucara+Resources+MultiMillionOunce+Gold+Targets+in+Peru.htm", "name": "Pucara Resources", "region": null, "state": "British Columbia", "stock": null, "symbol": null }, "geometry": { "type": "Point", "coordinates": [ -123.082129, 49.27799 ] } },
{ "type": "Feature", "properties": { "add": "1055 W Hastings St, Vancouver, BC V6E 2E9", "city": "Vancouver", "country": "ca", "exchange": "TSX-Venture", "name": "Pure Gold Mining", "region": null, "state": "British Columbia", "stock": "0.77 CDN", "symbol": "PGM " }, "geometry": { "type": "Point", "coordinates": [ -123.118268, 49.2877658 ] } },
{ "type": "Feature", "properties": { "add": "120 Adelaide St W, Toronto, ON M5H 1T1", "city": "Toronto", "country": "ca", "exchange": "TSX-Venture", "name": "Purepoint Uranium Group Inc.", "region": null, "state": "Ontario", "stock": "0.05 CDN", "symbol": "PTU " }, "geometry": { "type": "Point", "coordinates": [ -79.383203, 43.650014 ] } },
{ "type": "Feature", "properties": { "add": "65 Queen St W, Toronto, ON M5H 2M5", "city": "Toronto", "country": "ca", "exchange": "TSE\/Frankfurt", "name": "QMX Gold Corporation", "region": null, "state": "Ontario", "stock": "0.11 CDN", "symbol": "QMX\/OU2A" }, "geometry": { "type": "Point", "coordinates": [ -79.382324, 43.651771 ] } },
{ "type": "Feature", "properties": { "add": "1199 W Hastings St, Vancouver, BC V6E 3T5", "city": "Vancouver", "country": "ca", "exchange": "TSX-Venture\/OTCQB", "name": "Quaterra Resources Inc.", "region": null, "state": "British Columbia", "stock": "0.06 CDN", "symbol": "QTA\/QTRRF" }, "geometry": { "type": "Point", "coordinates": [ -123.122234, 49.288927 ] } },
{ "type": "Feature", "properties": { "add": "700 Ave Dallaire, Rouyn-Noranda, QC J9X 4V9", "city": "Rouyn-Noranda", "country": "ca", "exchange": "TSX-Venture", "name": "Radisson Mining Resources Inc.", "region": null, "state": "Quebec", "stock": "0.19 CDN", "symbol": "RDS" }, "geometry": { "type": "Point", "coordinates": [ -79.026093, 48.228226 ] } },
{ "type": "Feature", "properties": { "add": "105 King St E, Toronto ON M5C 1G6", "city": "Toronto", "country": "ca", "exchange": null, "name": "Red Cloud Securities Inc.", "region": null, "state": "Ontario", "stock": null, "symbol": null }, "geometry": { "type": "Point", "coordinates": [ -79.373383, 43.649967 ] } },
{ "type": "Feature", "properties": { "add": "278 Bay St, Thunder Bay, ON P7B 1R8", "city": "Thunder Bay", "country": "ca", "exchange": "OTCMKTS", "name": "Red Metal Resources Ltd.", "region": null, "state": "Ontario", "stock": "0.10 CDN", "symbol": "RMES" }, "geometry": { "type": "Point", "coordinates": [ -89.228801, 48.431667 ] } },
{ "type": "Feature", "properties": { "add": "145 Wellington St W, Toronto, ON M5J 1H8", "city": "Spadina—Fort York", "country": "ca", "exchange": "TSX-Venture", "name": "Red Pine Exploration Inc.", "region": null, "state": "Ontario", "stock": "0.04 CDN", "symbol": "RPX " }, "geometry": { "type": "Point", "coordinates": [ -79.384956, 43.645962 ] } },
{ "type": "Feature", "properties": { "add": "409 Granville St, Vancouver, BC V6C 1T2", "city": "Vancouver", "country": "ca", "exchange": "TSX-Venture\/OTC", "name": "Redstar Gold Corp.", "region": null, "state": "British Columbia", "stock": "0.03 CDN", "symbol": "RGC\/RGCTF" }, "geometry": { "type": "Point", "coordinates": [ -123.1142912, 49.2853029 ] } },
{ "type": "Feature", "properties": { "add": "5 Canada Square, London, UK E14 5AQ", "city": "London", "country": "gb", "exchange": null, "name": "Refinitiv", "region": null, "state": "England", "stock": null, "symbol": null }, "geometry": { "type": "Point", "coordinates": [ -0.018556, 51.50564 ] } },
{ "type": "Feature", "properties": { "add": "1177 W Hastings St, Vancouver, BC V6E 2K3", "city": "Vancouver", "country": "ca", "exchange": "TSX-Venture", "name": "Regulus Resources Inc.", "region": null, "state": "British Columbia", "stock": "1.10 CDN", "symbol": "REG" }, "geometry": { "type": "Point", "coordinates": [ -123.119792, 49.287988 ] } },
{ "type": "Feature", "properties": { "add": "4750 Longley Ln, Reno, NV 89502", "city": "Reno", "country": "us", "exchange": "TSX-Venture\/OTCQB", "name": "Renaissance Gold Inc.", "region": null, "state": "Nevada", "stock": "0.33 CDN", "symbol": "REN\/RNSGF" }, "geometry": { "type": "Point", "coordinates": [ -119.7606833, 39.4859973 ] } },
{ "type": "Feature", "properties": { "add": "1099 Kingston Rd, Pickering, ON L1V 1B5", "city": "Toronto", "country": "ca", "exchange": "CSE", "name": "Renforth Resources Inc.", "region": null, "state": "Ontario", "stock": "0.04 CDN", "symbol": "RFR " }, "geometry": { "type": "Point", "coordinates": [ -79.096819, 43.829389 ] } },
{ "type": "Feature", "properties": { "add": "25 York St, Toronto ON MSJ 2V5", "city": null, "country": "ca", "exchange": null, "name": "Resource Capital Funds", "region": null, "state": null, "stock": null, "symbol": null }, "geometry": null },
{ "type": "Feature", "properties": { "add": "1111 St Charles St W, Longueuil, QC J4K 5G4", "city": "Longueuil", "country": "ca", "exchange": "TSX-Venture", "name": "Reunion Gold Corporation", "region": null, "state": "Quebec", "stock": "0.10 CDN", "symbol": "RGD" }, "geometry": { "type": "Point", "coordinates": [ -73.515155, 45.518331 ] } },
{ "type": "Feature", "properties": { "add": "543 Granville St, Vancouver, BC V6C 1X8", "city": "Vancouver", "country": "ca", "exchange": "TSX-Venture", "name": "Revelo Resources Corp.", "region": null, "state": "British Columbia", "stock": "0.01 CDN", "symbol": "RVL " }, "geometry": { "type": "Point", "coordinates": [ -123.115947, 49.284352 ] } },
{ "type": "Feature", "properties": { "add": "145 King St W, Toronto, ON M5H 1J8", "city": "Toronto", "country": "ca", "exchange": "TSX-Venture\/OTCQB", "name": "Revival Gold Inc.", "region": null, "state": "Ontario", "stock": "0.83 CDN", "symbol": "RVG\/RVLGF" }, "geometry": { "type": "Point", "coordinates": [ -79.387868, 43.647262 ] } },
{ "type": "Feature", "properties": { "add": "145 King St W, Toronto, ON M5H 1J8", "city": "Toronto", "country": "ca", "exchange": null, "name": "Richardson GMP - Alexandra Horwood", "region": null, "state": "Ontario", "stock": null, "symbol": null }, "geometry": { "type": "Point", "coordinates": [ -79.387868, 43.647262 ] } },
{ "type": "Feature", "properties": { "add": "6 St James's Square, London, UK SW1Y 4AD", "city": "London", "country": "gb", "exchange": "Sydney (ASX)", "name": "Rio Tinto", "region": null, "state": "England", "stock": "97.50 AUS", "symbol": "RIO" }, "geometry": { "type": "Point", "coordinates": [ -0.135014, 51.508153 ] } },
{ "type": "Feature", "properties": { "add": "800 W Pender St, Vancouver BC V6C 2V6", "city": "Vancouver", "country": "ca", "exchange": "TSX-Venture\/OTCQB", "name": "Riverside Resources Inc.", "region": null, "state": "British Columbia", "stock": "0.14 CDN", "symbol": "RRI\/RVSDF " }, "geometry": { "type": "Point", "coordinates": [ -123.1164135, 49.2853994 ] } },
{ "type": "Feature", "properties": { "add": "Kirkland Lake, ON, P2N 3L1", "city": "Kirkland Lake", "country": "ca", "exchange": "TSX-Venture\/OTC", "name": "RJK Explorations Ltd.", "region": null, "state": "Ontario", "stock": "0.24 CDN", "symbol": "RJX.A\/RJKAF" }, "geometry": { "type": "Point", "coordinates": [ -80.029196, 48.151604 ] } },
{ "type": "Feature", "properties": { "add": "141 Adelaide St W, Toronto, ON M5H 3L5", "city": "Toronto", "country": "ca", "exchange": "TSE\/OTCQX", "name": "RNC Minerals", "region": null, "state": "Ontario", "stock": "0.44 CDN", "symbol": "RNX\/RNKLF" }, "geometry": { "type": "Point", "coordinates": [ -79.404066, 43.644554 ] } },
{ "type": "Feature", "properties": { "add": "141 Adelaide St W, Toronto, ON M5H 3L5", "city": "Toronto", "country": "ca", "exchange": "CSE", "name": "Rockcliff Metals Corporation", "region": null, "state": "Ontario", "stock": "0.07 CDN", "symbol": "RCLF " }, "geometry": { "type": "Point", "coordinates": [ -79.404066, 43.644554 ] } },
{ "type": "Feature", "properties": { "add": "625 Howe St, Vancouver, BC V6C 2T6", "city": "Vancouver", "country": "ca", "exchange": "TSX-Venture\/OTC:Pink\/Frankfurt", "name": "ROKMASTER Resources Corp.", "region": null, "state": "British Columbia", "stock": "0.08 CDN", "symbol": "RKR\/RKMSF\/1RR" }, "geometry": { "type": "Point", "coordinates": [ -123.117998, 49.284231 ] } },
{ "type": "Feature", "properties": { "add": "2 Toronto St, Toronto, ON M5C 2B6", "city": "Toronto", "country": "ca", "exchange": "TSX-Venture\/OTCPK\/Frankfurt", "name": "Romios Gold Resources Inc.", "region": null, "state": "Ontario", "stock": "0.04 CDN", "symbol": "RG\/RMIOF\/D4R" }, "geometry": { "type": "Point", "coordinates": [ -79.376175, 43.649696 ] } },
{ "type": "Feature", "properties": { "add": "1550 Bedford Hwy, Bedford, NS B4A 1E6", "city": "Halifax", "country": "ca", "exchange": "TSX-Venture", "name": "Roscan Gold Corporation", "region": null, "state": "Nova Scotia", "stock": "0.15 CDN", "symbol": "ROS" }, "geometry": { "type": "Point", "coordinates": [ -63.657547, 44.732176 ] } },
{ "type": "Feature", "properties": { "add": "360 Bay St, Toronto, ON M5H 2V6", "city": "Toronto", "country": "ca", "exchange": "TSE\/OTCQX", "name": "Roxgold Inc.", "region": null, "state": "Ontario", "stock": "0.95 CDN", "symbol": "ROXG\/ROGFF" }, "geometry": { "type": "Point", "coordinates": [ -79.381439, 43.650734 ] } },
{ "type": "Feature", "properties": { "add": "320 Sussex Dr, Ottawa, ON K1A 0G8", "city": "Ottawa", "country": "ca", "exchange": null, "name": "Royal Canadian Mint", "region": null, "state": "Ontario", "stock": null, "symbol": null }, "geometry": { "type": "Point", "coordinates": [ -75.6992603, 45.431451 ] } },
{ "type": "Feature", "properties": { "add": "4 Wharf St, St Helier, Jersey JE2 3NR", "city": "St Helier", "country": "je", "exchange": "TSX-Venture", "name": "Royal Road Minerals", "region": null, "state": null, "stock": "0.23 CDN", "symbol": "RYR " }, "geometry": { "type": "Point", "coordinates": [ -2.107975, 49.1831984 ] } },
{ "type": "Feature", "properties": { "add": "789 West Pender St, Vancouver, BC V6C 1H2", "city": "Vancouver", "country": "ca", "exchange": "TSX-Venture", "name": "Rugby Mining Limited", "region": null, "state": "British Columbia", "stock": "0.12 CDN", "symbol": "RUG" }, "geometry": { "type": "Point", "coordinates": [ -123.115458, 49.285288 ] } },
{ "type": "Feature", "properties": { "add": "4\/24 Parkland Road, Osborne Park, WA 6017", "city": "Perth", "country": "au", "exchange": "Sydney (ASX)", "name": "S2 Resources Ltd.", "region": null, "state": "Western Australia", "stock": "0.10 AUS", "symbol": "S2R " }, "geometry": { "type": "Point", "coordinates": [ 115.8139668, -31.9171547 ] } },
{ "type": "Feature", "properties": { "add": "555 Burrard St, Vancouver, BC V7X 1M9", "city": "Vancouver", "country": "ca", "exchange": "TSE", "name": "Sabina Gold & Silver Corp.", "region": null, "state": "British Columbia", "stock": "1.72 CDN", "symbol": "SBB " }, "geometry": { "type": "Point", "coordinates": [ -123.118569, 49.286399 ] } },
{ "type": "Feature", "properties": { "add": "1090 W Georgia St, Vancouver, BC V6E 3V7", "city": "Vancouver", "country": "ca", "exchange": "TSX-Venture\/FSE", "name": "Salazar Resources Limited", "region": null, "state": "British Columbia", "stock": "0.23 CDN", "symbol": "SRL\/CCG" }, "geometry": { "type": "Point", "coordinates": [ -123.123296, 49.285369 ] } },
{ "type": "Feature", "properties": { "add": "400 Burrard St, Vancouver, BC V6C 3A6", "city": "Vancouver", "country": "ca", "exchange": "TSE\/NYSE", "name": "Sandstorm Gold Royalties", "region": null, "state": "British Columbia", "stock": "9.21 CDN", "symbol": "SSL\/SAND" }, "geometry": { "type": "Point", "coordinates": [ -123.117075, 49.286617 ] } },
{ "type": "Feature", "properties": { "add": "283 Given Terrace, Paddington QLD 4064", "city": "Brisbane", "country": "au", "exchange": "Sydney (ASX)", "name": "Sayona Mining Limited", "region": null, "state": "Queensland", "stock": "0.01 AUS", "symbol": "SYA " }, "geometry": { "type": "Point", "coordinates": [ 153.0070107, -27.4620261 ] } },
{ "type": "Feature", "properties": { "add": "1959 Upper Water St, Halifax, NS B3J 3N2", "city": "Halifax", "country": "ca", "exchange": "TSX-Venture", "name": "ScoZinc Mining Ltd.", "region": null, "state": "Nova Scotia", "stock": "0.60 CDN", "symbol": "SZM " }, "geometry": { "type": "Point", "coordinates": [ -63.574183, 44.651743 ] } },
{ "type": "Feature", "properties": { "add": "1199 West Pender St, Vancouver, BC V6E 2R1", "city": "Vancouver", "country": "ca", "exchange": "TSX-Venture", "name": "Searchlight Resources Inc.", "region": null, "state": "British Columbia", "stock": "0.04 CDN", "symbol": "SCLT " }, "geometry": { "type": "Point", "coordinates": [ -123.07925, 49.280055 ] } },
{ "type": "Feature", "properties": { "add": "100 Boulevard Alexis-Nihon, Saint-Laurent, QC H4M 2P3", "city": "Saint-Laurent", "country": "ca", "exchange": "TSE", "name": "SEMAFO Inc.", "region": null, "state": "Quebec", "stock": "3.29 CDN", "symbol": "SMF " }, "geometry": { "type": "Point", "coordinates": [ -73.687268, 45.503163 ] } },
{ "type": "Feature", "properties": { "add": "30-32 Ludgate Hill, London, UK EC4M 7DR", "city": "London", "country": "gb", "exchange": "London (AIM)\/TSE\/ ", "name": "Serabi Gold plc", "region": null, "state": "England", "stock": "86.75 GBX", "symbol": "SRB\/SBI" }, "geometry": { "type": "Point", "coordinates": [ -0.101356, 51.513925 ] } },
{ "type": "Feature", "properties": { "add": "800 W Pender St, Vancouver, BC V6C 2V6", "city": "Vancouver", "country": "ca", "exchange": "TSX-Venture", "name": "Serengeti Resources Inc.", "region": null, "state": "British Columbia", "stock": "0.22 CDN", "symbol": "SIR" }, "geometry": { "type": "Point", "coordinates": [ -123.1164135, 49.2853994 ] } },
{ "type": "Feature", "properties": { "add": "22 Adelaide St W, Toronto, ON M5H 4E3", "city": "Toronto", "country": "ca", "exchange": "TSE", "name": "Sherritt International Corporation", "region": null, "state": "Ontario", "stock": "0.17 CDN", "symbol": "S" }, "geometry": { "type": "Point", "coordinates": [ -79.3794979, 43.6504863 ] } },
{ "type": "Feature", "properties": { "add": "360 Rue Saint-Jacques, Montréal, QC H2Y 1P5", "city": "Montreal", "country": "ca", "exchange": null, "name": "Sidex", "region": null, "state": "Quebec", "stock": null, "symbol": null }, "geometry": { "type": "Point", "coordinates": [ -73.587188, 45.476943 ] } },
{ "type": "Feature", "properties": { "add": "161 Bay St, Toronto, ON M5J 2S1", "city": "Toronto", "country": "ca", "exchange": "TSE\/NYSE", "name": "Sierra Metals Inc.", "region": null, "state": "Ontario", "stock": "2.00  CDN", "symbol": "SMT\/SMTS" }, "geometry": { "type": "Point", "coordinates": [ -79.3787741, 43.6469 ] } },
{ "type": "Feature", "properties": { "add": "45 King William St, London, UK EC4R 9AN", "city": "London", "country": "gb", "exchange": "TSE", "name": "Silver Bear Resources Plc.", "region": null, "state": "England", "stock": "0.14 CDN", "symbol": "SBR " }, "geometry": { "type": "Point", "coordinates": [ -0.086735, 51.509974 ] } },
{ "type": "Feature", "properties": { "add": "1040 W Georgia St, Vancouver, BC V6E 4H1", "city": "Vancouver", "country": "ca", "exchange": "TSX-Venture\/OTC\/FSE", "name": "Silver One Resources", "region": null, "state": "British Columbia", "stock": "0.35 CDN", "symbol": "SVE\/SLVRF\/BRK1" }, "geometry": { "type": "Point", "coordinates": [ -123.082129, 49.27799 ] } },
{ "type": "Feature", "properties": { "add": "1066 W Hastings St, Vancouver, BC V6E 3X1", "city": "Vancouver", "country": "ca", "exchange": "TSE\/NYSE", "name": "Silvercorp Metals Inc.", "region": null, "state": "British Columbia", "stock": "5.50 CDN", "symbol": "SVM" }, "geometry": { "type": "Point", "coordinates": [ -123.118888, 49.287369 ] } },
{ "type": "Feature", "properties": { "add": "570 Granville St, Vancouver, BC V6C 3P1", "city": "Vancouver", "country": "ca", "exchange": "TSE\/NYSE", "name": "SilverCrest Metals Inc.", "region": null, "state": "British Columbia", "stock": "8.86 CDN", "symbol": "SIL " }, "geometry": { "type": "Point", "coordinates": [ -123.115659, 49.28372 ] } },
{ "type": "Feature", "properties": { "add": "1000 St-Antoine O, Montréal, QC H3C 3R7", "city": "Montreal", "country": "ca", "exchange": "TSX-Venture", "name": "Sirios Resources Inc.", "region": null, "state": "Quebec", "stock": "0.15 CDN", "symbol": "SOI " }, "geometry": { "type": "Point", "coordinates": [ -73.565717, 45.497875 ] } },
{ "type": "Feature", "properties": { "add": "409 Granville St, Vancouver, BC V6C 1T2", "city": "Vancouver", "country": "ca", "exchange": "CSE\/FSE", "name": "Sitka Gold Corp", "region": null, "state": "British Columbia", "stock": "0.23 CDN", "symbol": "SIG\/1RF" }, "geometry": { "type": "Point", "coordinates": [ -123.1142912, 49.2853029 ] } },
{ "type": "Feature", "properties": { "add": "1021 W Hastings St, Vancouver, BC V6E 0C3", "city": "Vancouver", "country": "ca", "exchange": "TSX-Venture\/OTCQX\/FRA", "name": "Skeena Resources Ltd.", "region": null, "state": "British Columbia", "stock": "1.08 CDN", "symbol": "SKE\/SKREF\/RXFB" }, "geometry": { "type": "Point", "coordinates": [ -123.081309, 49.281117 ] } },
{ "type": "Feature", "properties": { "add": "777 Dunsmuir St, Vancouver, BC V7Y 1K4", "city": "Vancouver", "country": "ca", "exchange": "TSX-Venture\/OTCQB\/Frankfurt", "name": "Skyharbour Resources Ltd.", "region": null, "state": "British Columbia", "stock": "0.17 CDN", "symbol": "SYH\/SYH\/SYHBF\/SC1P" }, "geometry": { "type": "Point", "coordinates": [ -123.116399, 49.284331 ] } },
{ "type": "Feature", "properties": { "add": "82 Richmond St E, Toronto, ON M5C 1P1", "city": "Toronto", "country": "ca", "exchange": "TSX-Venture", "name": "Sokoman Minerals Corp.", "region": null, "state": "Ontario", "stock": "0.11 CDN", "symbol": "SIC " }, "geometry": { "type": "Point", "coordinates": [ -79.3750388, 43.6526534 ] } },
{ "type": "Feature", "properties": { "add": "111 Eagle St, Brisbane, QLD 4000", "city": "Brisbane", "country": "au", "exchange": "TSE\/LSE", "name": "SolGold", "region": null, "state": "Queensland", "stock": "0.35 CDN", "symbol": "SOLG " }, "geometry": { "type": "Point", "coordinates": [ 153.030237699999986, -27.4676311 ] } },
{ "type": "Feature", "properties": { "add": "4251 Kipling St, Wheat Ridge, CO 80033", "city": "Wheat Ridge", "country": "us", "exchange": "TSE\/NYSE", "name": "Solitario Zinc Corp.", "region": null, "state": "Colorado", "stock": "0.42 CDN", "symbol": "SLR\/XPL" }, "geometry": { "type": "Point", "coordinates": [ -105.1097227, 39.7761401 ] } },
{ "type": "Feature", "properties": { "add": "409 Granville St, Vancouver, BC V6C 1T2", "city": "Vancouver", "country": "ca", "exchange": "TSX-Venture\/OTCQB\/FRA", "name": "Sonoro Metals Corp.", "region": null, "state": "British Columbia", "stock": "0.14 CDN", "symbol": "SMO\/SMOFF\/23SP" }, "geometry": { "type": "Point", "coordinates": [ -123.1142912, 49.2853029 ] } },
{ "type": "Feature", "properties": { "add": "108 St Georges Terrace, Perth, WA 6000", "city": "Perth", "country": "au", "exchange": "Sydney (ASX)", "name": "South32 Limited", "region": null, "state": "Western Australia", "stock": "2.63 AUS", "symbol": "S32" }, "geometry": { "type": "Point", "coordinates": [ 115.857183, -31.9544442 ] } },
{ "type": "Feature", "properties": { "add": "410 Falconbridge Road, Sudbury, ON P3A 4S4", "city": "Sudbury", "country": "ca", "exchange": "TSX-Venture ", "name": "SPC Metals", "region": null, "state": "Ontario", "stock": "0.18 CDN", "symbol": "XTM (Transition Metals, Parent) " }, "geometry": { "type": "Point", "coordinates": [ -80.926716, 46.515118 ] } },
{ "type": "Feature", "properties": { "add": "1000 De La Gauchetière O, Montreal, QC H3B 4W5", "city": "Montreal", "country": "ca", "exchange": "TSX-Venture ", "name": "Sphinx Resources Ltd.", "region": "Montreal (06)", "state": "Quebec", "stock": "0.02 CDN", "symbol": "SFX" }, "geometry": { "type": "Point", "coordinates": [ -73.5662471, 45.4982013 ] } },
{ "type": "Feature", "properties": { "add": "1104 20th Ave, Menominee, MI 49858", "city": "Menominee", "country": "us", "exchange": null, "name": "Spirit Mining LLC", "region": null, "state": "Michigan", "stock": null, "symbol": null }, "geometry": { "type": "Point", "coordinates": [ -87.6180061, 45.1170662 ] } },
{ "type": "Feature", "properties": { "add": "200 Bay St, Toronto, ON M5J 2J1", "city": "Toronto", "country": "ca", "exchange": "TSE", "name": "Sprott Group of Companies", "region": null, "state": "Ontario", "stock": "3.05 CDN", "symbol": "SII" }, "geometry": { "type": "Point", "coordinates": [ -79.3803017, 43.6466411 ] } },
{ "type": "Feature", "properties": { "add": "El Trovador 4285, Las Condes, Región Metropolitana", "city": "Las Condes", "country": "cl", "exchange": "NYSE", "name": "SQM", "region": null, "state": "Santiago Metropolitan Region", "stock": "31.05 USD", "symbol": "SQM" }, "geometry": { "type": "Point", "coordinates": [ -70.586542, -33.413795 ] } },
{ "type": "Feature", "properties": { "add": "224 4th Ave S, Saskatoon, SK S7K 5M5", "city": null, "country": "ca", "exchange": "TSX-Venture ", "name": "Star Diamond Corporation", "region": null, "state": "Saskatchewan", "stock": "0.45 CDN", "symbol": "DIAM" }, "geometry": { "type": "Point", "coordinates": [ -106.6612543, 52.1255464 ] } },
{ "type": "Feature", "properties": { "add": "580 Hornby St, Vancouver, BC V6C 3B6", "city": "Vancouver", "country": "ca", "exchange": "TSE\/FK", "name": "Starcore International Mines Ltd.", "region": null, "state": "British Columbia", "stock": "0.12 CDN", "symbol": "SAM\/V4JA" }, "geometry": { "type": "Point", "coordinates": [ -123.117909, 49.285199 ] } },
{ "type": "Feature", "properties": { "add": "Shangri-La, Olympic St 19A, Sukhbaatar District 1, Ulaanbaatar 14241", "city": "Ulan Bator", "country": "mn", "exchange": "TSE\/FWB", "name": "Steppe Gold Limited", "region": null, "state": "Ulaanbaatar Hot", "stock": "0.91 CDN", "symbol": "STGO\/2J9" }, "geometry": { "type": "Point", "coordinates": [ 106.88324, 47.90771 ] } },
{ "type": "Feature", "properties": { "add": "100 King St W, Toronto, ON M5X 1C7", "city": "Toronto", "country": "ca", "exchange": "TSX-Venture ", "name": "Stratabound Minerals Corp.", "region": null, "state": "Ontario", "stock": "0.08 CDN", "symbol": "SB " }, "geometry": { "type": "Point", "coordinates": [ -79.3816918, 43.6487681 ] } },
{ "type": "Feature", "properties": { "add": "510 W Hastings St, Vancouver, BC V6B 1L8", "city": "Vancouver", "country": "ca", "exchange": "See companies ", "name": "Strategic Exploration Group", "region": null, "state": "British Columbia", "stock": null, "symbol": null }, "geometry": { "type": "Point", "coordinates": [ -123.112371, 49.283923 ] } },
{ "type": "Feature", "properties": { "add": "625 Howe St, Vancouver, BC V6C 2T6", "city": "Vancouver", "country": "ca", "exchange": "TSX-Venture", "name": "Strongbow Exploration Inc.", "region": null, "state": "British Columbia", "stock": "0.05 CDN", "symbol": "SBW" }, "geometry": { "type": "Point", "coordinates": [ -123.117998, 49.284231 ] } },
{ "type": "Feature", "properties": { "add": "1245 W Broadway, Vancouver, BC V6H 1G7", "city": "Vancouver", "country": "ca", "exchange": "TSX-Venture ", "name": "Stuhini Exploration Ltd.", "region": null, "state": "British Columbia", "stock": "0.30  CDN", "symbol": "STU " }, "geometry": { "type": "Point", "coordinates": [ -123.1253235, 49.2635543 ] } },
{ "type": "Feature", "properties": { "add": "15782 Marine Dr, White Rock, BC V4B 1E6", "city": "White Rock", "country": "ca", "exchange": null, "name": "Sun Peak Metals", "region": null, "state": "British Columbia", "stock": null, "symbol": null }, "geometry": { "type": "Point", "coordinates": [ -122.78529, 49.016777 ] } },
{ "type": "Feature", "properties": { "add": "100 King St W, Toronto, ON M5X 1A0", "city": "Toronto", "country": "ca", "exchange": "CSE", "name": "Talisker Resources", "region": null, "state": "Ontario", "stock": "0.41 CDN", "symbol": "TSK" }, "geometry": { "type": "Point", "coordinates": [ -79.381714, 43.648778 ] } },
{ "type": "Feature", "properties": { "add": "6 Willowood Ct, Toronto, ON M2J 2M3", "city": "Toronto", "country": "ca", "exchange": "CSE", "name": "Talmora Diamond Inc.", "region": null, "state": "Ontario", "stock": "0.02 CDN", "symbol": "TAI-CN" }, "geometry": { "type": "Point", "coordinates": [ -79.363106, 43.780701 ] } },
{ "type": "Feature", "properties": { "add": "Craigmuir Chambers Road Town, Tortola VG1110", "city": "Tortola", "country": "vg", "exchange": "TSE", "name": "Talon Metals Corp.", "region": null, "state": null, "stock": "0.12 CDN", "symbol": "TLO " }, "geometry": { "type": "Point", "coordinates": [ -64.60382, 18.43882 ] } },
{ "type": "Feature", "properties": { "add": "550 Burrard St, Vancouver, BC V6C 0B3", "city": "West Vancouver", "country": "ca", "exchange": "TSE", "name": "Teck Resources Limited", "region": null, "state": "British Columbia", "stock": "19.90 CDN", "symbol": "TECK.A" }, "geometry": { "type": "Point", "coordinates": [ -123.191454, 49.343413 ] } },
{ "type": "Feature", "properties": { "add": "744 W Hastings St, Vancouver, BC V6C 1A5", "city": "Tsawwassen", "country": "ca", "exchange": "TSX-Venture", "name": "Tectonic Metals Inc.", "region": null, "state": "British Columbia", "stock": "0.23 CDN", "symbol": "TECT" }, "geometry": { "type": "Point", "coordinates": [ -123.067887, 49.025591 ] } },
{ "type": "Feature", "properties": { "add": "1111 Melville St, Vancouver, BC V6E 3V6", "city": "Vancouver", "country": "ca", "exchange": "TSX-Venture", "name": "Telson Mining Corporation", "region": null, "state": "British Columbia", "stock": "0.11 CDN", "symbol": "TSN" }, "geometry": { "type": "Point", "coordinates": [ -123.122136, 49.286786 ] } },
{ "type": "Feature", "properties": { "add": "22 Mount St, Perth, WA 6000", "city": "Perth", "country": "au", "exchange": "Sydney (ASX)", "name": "Tempus Resources Limited", "region": null, "state": "Western Australia", "stock": "0.21 AUS", "symbol": "TMR" }, "geometry": { "type": "Point", "coordinates": [ 115.8510181, -31.9529761 ] } },
{ "type": "Feature", "properties": { "add": "77 King St W, Toronto, ON M5K 2A1", "city": "Toronto", "country": "ca", "exchange": "TSE\/OTCQX", "name": "Teranga Gold Corporation", "region": null, "state": "Ontario", "stock": "7.66 CDN", "symbol": "TGZ\/TGCDF" }, "geometry": { "type": "Point", "coordinates": [ -79.382057, 43.647865 ] } },
{ "type": "Feature", "properties": { "add": "999 Canada Place, Vancouver, BC V6C 3E1", "city": "Vancouver", "country": "ca", "exchange": "TSX-Venture", "name": "Tethyan Resource Corp.", "region": null, "state": "British Columbia", "stock": "0.16 CDN", "symbol": "TETH " }, "geometry": { "type": "Point", "coordinates": [ -123.114011, 49.287912 ] } },
{ "type": "Feature", "properties": { "add": "101 E Lakeside Dr, Coeur d’Alene, ID 83814", "city": "Coeur d'Alene", "country": "us", "exchange": "TSX-Venture\/OTCQB", "name": "Timberline Resources Corporation", "region": null, "state": "Idaho", "stock": "0.10 CDN", "symbol": "TBR\/TLRS" }, "geometry": { "type": "Point", "coordinates": [ -116.785529, 47.67521 ] } },
{ "type": "Feature", "properties": { "add": "1090 W Georgia St, Vancouver, BC V6E 3V7", "city": "Vancouver", "country": "ca", "exchange": "TSX-Venture", "name": "Tinka Resources Limited", "region": null, "state": "British Columbia", "stock": "0.18 CDN", "symbol": "TK " }, "geometry": { "type": "Point", "coordinates": [ -123.123296, 49.285369 ] } },
{ "type": "Feature", "properties": { "add": "100 Adelaide St W, Toronto, ON M5H 1S3", "city": "Toronto", "country": "ca", "exchange": "TMX ", "name": "Toronto Stock Exchange", "region": null, "state": "Ontario", "stock": "117.10 CDN", "symbol": "X" }, "geometry": { "type": "Point", "coordinates": [ -79.382056, 43.649612 ] } },
{ "type": "Feature", "properties": { "add": "410 Falconbridge Rd, Sudbury, ON P3A 4S4", "city": "Sudbury", "country": "ca", "exchange": "TSX-Venture", "name": "Transition Metals Corp.", "region": null, "state": "Ontario", "stock": "0.18 CDN", "symbol": "XTM " }, "geometry": { "type": "Point", "coordinates": [ -80.926716, 46.515118 ] } },
{ "type": "Feature", "properties": { "add": "130 King St W, Toronto, ON M5X 1B1", "city": "Toronto", "country": "ca", "exchange": "TSX-Venture", "name": "Treasury Metals Inc.", "region": null, "state": "Ontario", "stock": "0. 26 CDN", "symbol": "TML" }, "geometry": { "type": "Point", "coordinates": [ -79.3832425, 43.648418 ] } },
{ "type": "Feature", "properties": { "add": "1934 131 St White Rock, BC V4A 7R7", "city": "White Rock", "country": "ca", "exchange": "TSX-Venture", "name": "Tres-Or Resources Ltd.", "region": null, "state": "British Columbia", "stock": "0.09 CDN", "symbol": "TRS" }, "geometry": { "type": "Point", "coordinates": [ -122.859595, 49.037326 ] } },
{ "type": "Feature", "properties": { "add": "999 West Hastings St, Vancouver, BC V6C 2W2", "city": "Vancouver", "country": "ca", "exchange": "TSX-Venture", "name": "Trevali Mining Corporation", "region": null, "state": "British Columbia", "stock": "0.17 CDN (low for production...?)", "symbol": "TV" }, "geometry": { "type": "Point", "coordinates": [ -123.11651, 49.287199 ] } },
{ "type": "Feature", "properties": { "add": "125 Don Hillock Dr, Aurora, ON L4G 0H8", "city": "Toronto", "country": "ca", "exchange": "TSX-Venture", "name": "Tri Origin Exploration Ltd.", "region": null, "state": "Ontario", "stock": "0.02 CDN", "symbol": "TOE " }, "geometry": { "type": "Point", "coordinates": [ -79.412278, 44.009052 ] } },
{ "type": "Feature", "properties": { "add": "609 Granville St, Vancouver, BC V7Y 1G5", "city": "Vancouver", "country": "ca", "exchange": "TSE\/NYSE", "name": "Trilogy Metals Inc.", "region": null, "state": "British Columbia", "stock": "2.69 CDN", "symbol": "TMQ" }, "geometry": { "type": "Point", "coordinates": [ -123.1157179, 49.2829861 ] } },
{ "type": "Feature", "properties": { "add": "7950 East Acoma Dr, Scottsdale, AZ 85260", "city": "Scottsdale", "country": "us", "exchange": "TSX-Venture\/OTCQB", "name": "TriStar Gold Inc.", "region": null, "state": "Arizona", "stock": "0.32 CDN", "symbol": "TSG\/TSGZF" }, "geometry": { "type": "Point", "coordinates": [ -111.909146, 33.6178188 ] } },
{ "type": "Feature", "properties": { "add": "1111 Melville St, Vancouver, BC V6E 3V6", "city": "Vancouver", "country": "ca", "exchange": "TSX-Venture\/OTC\/Frankfurt ", "name": "Triumph Gold Corp.", "region": null, "state": "British Columbia", "stock": "0.23 CDN", "symbol": "TIG\/TIGCF\/8N61" }, "geometry": { "type": "Point", "coordinates": [ -123.122136, 49.286786 ] } },
{ "type": "Feature", "properties": { "add": "36 Lombard St, Toronto, ON M5C 2X3", "city": "Toronto", "country": "ca", "exchange": "TSX-Venture\/OTCQB", "name": "Troilus Gold Corp.", "region": null, "state": "Ontario", "stock": "0.76 CDN", "symbol": "TLG\/CHXMF" }, "geometry": { "type": "Point", "coordinates": [ -79.376312, 43.651821 ] } },
{ "type": "Feature", "properties": { "add": "837 W Hastings St, Vancouver, BC V6C 3N6", "city": "W Vancouver", "country": "ca", "exchange": "TSX-Venture\/Frankfurt", "name": "Tudor Gold Corp.", "region": null, "state": "British Columbia", "stock": "0.61 CDN", "symbol": "TUD\/TUC.F" }, "geometry": { "type": "Point", "coordinates": [ -123.115131, 49.286164 ] } },
{ "type": "Feature", "properties": { "add": "100 King St W, Toronto, ON M5X 1C7", "city": "Toronto", "country": "ca", "exchange": "CSE\/OTCMKTS", "name": "Ubique Minerals Ltd.", "region": null, "state": "Ontario", "stock": "0.05 CDN", "symbol": "UBQ\/GRNBF" }, "geometry": { "type": "Point", "coordinates": [ -79.3816918, 43.6487681 ] } },
{ "type": "Feature", "properties": { "add": "210 Waterfront Dr,  Bedford, NS B4A 0H3", "city": "Halifax", "country": "ca", "exchange": "TSX-Venture\/OTCQX\/FSE", "name": "Ucore Rare Metals Inc.", "region": null, "state": "Nova Scotia", "stock": "0.20 CDN", "symbol": "UCU\/UURAF\/U9U " }, "geometry": { "type": "Point", "coordinates": [ -63.673267, 44.714911 ] } },
{ "type": "Feature", "properties": { "add": "3530 Millar Ave, Saskatoon, SK S7P 0B6", "city": "Saskatoon", "country": "ca", "exchange": "TSX-Venture", "name": "UEX Corporation", "region": null, "state": "Saskatchewan", "stock": "0.12 CDN", "symbol": "UEX " }, "geometry": { "type": "Point", "coordinates": [ -106.646538, 52.187503 ] } },
{ "type": "Feature", "properties": { "add": "141 Adelaide St W, Toronto, Ontario M5H 3L5", "city": "Toronto", "country": "ca", "exchange": "TSX-Venture", "name": "Unigold Inc.", "region": null, "state": "Ontario", "stock": "0.20 CDN", "symbol": "UGD" }, "geometry": { "type": "Point", "coordinates": [ -79.404066, 43.644554 ] } },
{ "type": "Feature", "properties": { "add": "500 N Shoreline Blvd, Corpus Christi, TX 78401", "city": "Corpus Christi", "country": "us", "exchange": "NYSE", "name": "Uranium Energy Corp.", "region": null, "state": "Texas", "stock": "0.89 USD", "symbol": "UEC" }, "geometry": { "type": "Point", "coordinates": [ -97.3918473, 27.7950228 ] } },
{ "type": "Feature", "properties": { "add": "10758 W Centennial Road, Littleton, CO 80127", "city": "Littleton", "country": "us", "exchange": "TSE\/NYSE", "name": "Ur-Energy Inc.", "region": null, "state": "Colorado", "stock": "0.71 CDN", "symbol": "URE\/URG" }, "geometry": { "type": "Point", "coordinates": [ -105.120163, 39.567038 ] } },
{ "type": "Feature", "properties": { "add": "Praia de Botafogo, 186 - Botafogo, Rio de Janeiro, 22250-040", "city": "Rio de Janeiro", "country": "br", "exchange": "NYSE", "name": "Vale Canada Limited", "region": null, "state": "Rio de Janeiro", "stock": "12.10 USD", "symbol": "VALE " }, "geometry": { "type": "Point", "coordinates": [ -43.1822896, -22.94755 ] } },
{ "type": "Feature", "properties": { "add": "Avenida del Partenón, 16-18, 28042 Madrid", "city": "Madrid", "country": "es", "exchange": "See Sycre?", "name": "Valoriza Mineria SL", "region": null, "state": "Community of Madrid", "stock": "\/", "symbol": "\/" }, "geometry": { "type": "Point", "coordinates": [ -3.6162858, 40.4638462 ] } },
{ "type": "Feature", "properties": { "add": "110 Yonge St, Toronto, ON M5C 1T4", "city": "Toronto", "country": "ca", "exchange": null, "name": "Vanadium One Iron Corp.", "region": null, "state": "Ontario", "stock": null, "symbol": null }, "geometry": { "type": "Point", "coordinates": [ -79.385157, 43.647459 ] } },
{ "type": "Feature", "properties": { "add": "1505 W 2nd, Vancouver, BC V6H 3Y4", "city": "Vancouver", "country": "ca", "exchange": "TSX-Venture", "name": "VanadiumCorp Resource Inc.", "region": null, "state": "British Columbia", "stock": "0.05 CDN", "symbol": "VRB " }, "geometry": { "type": "Point", "coordinates": [ -123.137983, 49.269592 ] } },
{ "type": "Feature", "properties": { "add": "1177 W Hastings St, Vancouver, BC V6E 2K3", "city": "Vancouver", "country": "ca", "exchange": "TSX-Venture", "name": "Velocity Minerals Ltd.", "region": null, "state": "British Columbia", "stock": "0.44 CDN", "symbol": "VLC " }, "geometry": { "type": "Point", "coordinates": [ -123.119792, 49.287988 ] } },
{ "type": "Feature", "properties": { "add": "80 Richmond St W, Toronto, ON M5H 2A4", "city": "Toronto", "country": "ca", "exchange": "CSE", "name": "Victory Nickel Inc.", "region": null, "state": "Ontario", "stock": "0.03 CDN", "symbol": "NI " }, "geometry": { "type": "Point", "coordinates": [ -79.382156, 43.651237 ] } },
{ "type": "Feature", "properties": { "add": "1801 McGill College Ave, Montreal, QC H3A 2N4", "city": "Montreal", "country": "ca", "exchange": "TSX-Venture", "name": "Vior Inc.", "region": null, "state": "Quebec", "stock": "0.10 CDN", "symbol": "VIO " }, "geometry": { "type": "Point", "coordinates": [ -73.601584, 45.557805 ] } },
{ "type": "Feature", "properties": { "add": "61 McMurray Road, Pittsburgh, PA 15241", "city": "Pittsburgh", "country": "us", "exchange": null, "name": "Vista Energy Resources", "region": null, "state": "Pennsylvania", "stock": null, "symbol": null }, "geometry": { "type": "Point", "coordinates": [ -80.066039, 40.327497 ] } },
{ "type": "Feature", "properties": { "add": "7961 Shaffer Parkway, Littleton, CO 80127", "city": "Littleton", "country": "us", "exchange": "TSE\/NYSE", "name": "Vista Gold Corp.", "region": null, "state": "Colorado", "stock": "0.92 CDN", "symbol": "VGZ" }, "geometry": { "type": "Point", "coordinates": [ -105.133152, 39.574207 ] } },
{ "type": "Feature", "properties": { "add": "8047 199 St, Langley, BC V2Y 0E2", "city": "Vancouver", "country": "ca", "exchange": "TSX-Venture\/OTCBB\/Frankfurt", "name": "Viva Gold Corp.", "region": null, "state": "British Columbia", "stock": "0.23 CDN", "symbol": "VAU\/VAUCF\/7PB" }, "geometry": { "type": "Point", "coordinates": [ -122.671782, 49.149145 ] } },
{ "type": "Feature", "properties": { "add": "1030 West Georgia St, Vancouver, BC V6E 2Y3", "city": "Vancouver", "country": "ca", "exchange": "TSX-Venture", "name": "Vizsla Resources Corp.", "region": null, "state": "British Columbia", "stock": "0.69 CDN", "symbol": "VZLA" }, "geometry": { "type": "Point", "coordinates": [ -123.122024, 49.284541 ] } },
{ "type": "Feature", "properties": { "add": "700 West Pender St, Vancouver, BC V6C 1G8", "city": "Vancouver", "country": "ca", "exchange": "TSX-Venture\/OTC\/Frankfurt", "name": "VR Resources Ltd.", "region": null, "state": "British Columbia", "stock": "0.35 CDN", "symbol": "VRR\/VRRCF\/5VR" }, "geometry": { "type": "Point", "coordinates": [ -123.1154498, 49.2846592 ] } },
{ "type": "Feature", "properties": { "add": "333 Duckworth St St John's, NL A1C 1G9", "city": "St. John's", "country": "ca", "exchange": "TSX-Venture", "name": "Vulcan Minerals Inc.", "region": null, "state": "Newfoundland and Labrador", "stock": "0.05 CDN", "symbol": "VUL " }, "geometry": { "type": "Point", "coordinates": [ -52.707813, 47.564626 ] } },
{ "type": "Feature", "properties": { "add": "129 Fielding Road Lively ON P3Y 1L7", "city": "Lively", "country": "ca", "exchange": "TSX-Venture", "name": "Wallbridge Mining Company Limited", "region": null, "state": "Ontario", "stock": "0.89 CDN", "symbol": "WM " }, "geometry": { "type": "Point", "coordinates": [ -81.097006, 46.446123 ] } },
{ "type": "Feature", "properties": { "add": "353 Dalhousie St, Ottawa, ON K1N 7G1", "city": "Ottawa", "country": "ca", "exchange": null, "name": "WCPD Inc.", "region": null, "state": "Ontario", "stock": null, "symbol": null }, "geometry": { "type": "Point", "coordinates": [ -75.690315, 45.4281637 ] } },
{ "type": "Feature", "properties": { "add": "1177 West Hastings St, Vancouver, BC V6E 2K3", "city": "Vancouver", "country": "ca", "exchange": "TSX-Venture\/OTCQB", "name": "Wealth Minerals Ltd.", "region": null, "state": "British Columbia", "stock": "0.30 CDN", "symbol": "WML\/WMLLF" }, "geometry": { "type": "Point", "coordinates": [ -123.119792, 49.287988 ] } },
{ "type": "Feature", "properties": { "add": "220 Bay St, Toronto, ON M5J 2W4", "city": "Toronto", "country": "ca", "exchange": "TSE", "name": "Wesdome Gold Mines", "region": null, "state": "Ontario", "stock": "9.73 CDN", "symbol": "WDO" }, "geometry": { "type": "Point", "coordinates": [ -79.379954, 43.647552 ] } },
{ "type": "Feature", "properties": { "add": "82 Richmond St E, Toronto, ON  M5C 1P1", "city": "Toronto", "country": "ca", "exchange": "CSE", "name": "West Red Lake Gold Mines Inc.", "region": null, "state": "Ontario", "stock": "0.07 CDN", "symbol": "RLG " }, "geometry": { "type": "Point", "coordinates": [ -79.3750388, 43.6526534 ] } },
{ "type": "Feature", "properties": { "add": "3573 E Sunrise Drive, Tucson, AZ 85718", "city": null, "country": "us", "exchange": "private ", "name": "Western Alaska Copper and Gold", "region": null, "state": "Arizona", "stock": null, "symbol": null }, "geometry": { "type": "Point", "coordinates": [ -110.9128694, 32.3152636 ] } },
{ "type": "Feature", "properties": { "add": "666 Burrard St, Vancouver, BC V6C 2X8", "city": "Vancouver", "country": "ca", "exchange": "TSX-Venture", "name": "Western Atlas Resources Inc.", "region": null, "state": "British Columbia", "stock": "0.08 CDN", "symbol": "WA" }, "geometry": { "type": "Point", "coordinates": [ -123.119358, 49.285067 ] } },
{ "type": "Feature", "properties": { "add": "1040 West Georgia St, Vancouver, BC V6E 4H", "city": null, "country": "ca", "exchange": "TSE\/NYSE", "name": "Western Copper and Gold Corporation", "region": null, "state": null, "stock": "0.79 CDN", "symbol": "WRN" }, "geometry": null },
{ "type": "Feature", "properties": { "add": "330 Bay St, Toronto, ON M5H 2S8", "city": "Toronto", "country": "ca", "exchange": "CSE\/OTCQX", "name": "Western Uranium & Vanadium Corp.", "region": null, "state": "Ontario", "stock": "0.77 CDN", "symbol": "WUC\/WSTRF" }, "geometry": { "type": "Point", "coordinates": [ -79.381218, 43.650112 ] } },
{ "type": "Feature", "properties": { "add": "409 Granville St, Vancouver, BC V6C 1T2", "city": "Vancouver", "country": "ca", "exchange": "TSX-Venture", "name": "Westhaven Ventures Inc.", "region": null, "state": "British Columbia", "stock": "0.70 CDN", "symbol": "WHN " }, "geometry": { "type": "Point", "coordinates": [ -123.1142912, 49.2853029 ] } },
{ "type": "Feature", "properties": { "add": "1021 West Hastings St Vancouver, BC V6E 0C3", "city": "Vancouver", "country": "ca", "exchange": "TSE\/NYSE", "name": "Wheaton Precious Metals Corp.", "region": null, "state": "British Columbia", "stock": "41.65 CDN", "symbol": "WPM" }, "geometry": { "type": "Point", "coordinates": [ -123.081309, 49.281117 ] } },
{ "type": "Feature", "properties": { "add": "82 Richmond St E, Toronto, ON M5C 1P1", "city": "Toronto", "country": "ca", "exchange": "TSX-Venture\/OTC", "name": "White Gold Corp.", "region": null, "state": "Ontario", "stock": "0.87 CDN", "symbol": "WGO\/WHGOF" }, "geometry": { "type": "Point", "coordinates": [ -79.3750388, 43.6526534 ] } },
{ "type": "Feature", "properties": { "add": "12 Anderson St, West Ballarat, Victoria 3350", "city": "BALLARAT CENTRAL", "country": "au", "exchange": "Sydney (ASX)", "name": "White Rock Minerals", "region": null, "state": "VICTORIA", "stock": "0.00 AUS", "symbol": "WRM" }, "geometry": { "type": "Point", "coordinates": [ 143.8599147, -37.5653844 ] } },
{ "type": "Feature", "properties": { "add": "580 Hornby St, Vancouver, BC V6C 3B6", "city": "Vancouver", "country": "ca", "exchange": "TSX-Venture\/OTC", "name": "Wildsky Resources Inc.", "region": null, "state": "British Columbia", "stock": "0.06 CDN", "symbol": "WSK\/HWTHF" }, "geometry": { "type": "Point", "coordinates": [ -123.117909, 49.285199 ] } },
{ "type": "Feature", "properties": { "add": "7005 Boulevard Taschereau, Brossard, QC J4Z 1A7", "city": "Brossard", "country": "ca", "exchange": "TSX-Venture", "name": "Windfall Geotek Inc.", "region": "Montérégie", "state": "Quebec", "stock": "0.09 CDN", "symbol": "WIN" }, "geometry": { "type": "Point", "coordinates": [ -73.4654007, 45.4667634 ] } },
{ "type": "Feature", "properties": { "add": "1100 Russell St, Thunder Bay, ON P7B 5N2", "city": "Thunder Bay", "country": "ca", "exchange": "TSX-Venture", "name": "Wolfden Resources Corporation", "region": null, "state": "Ontario", "stock": "0.14 CDN", "symbol": "WLF " }, "geometry": { "type": "Point", "coordinates": [ -89.254509, 48.402074 ] } },
{ "type": "Feature", "properties": { "add": "837 W Hastings St, Vancouver, BC V6C 3N6", "city": "W Vancouver", "country": "ca", "exchange": "TSX-Venture", "name": "Xiana Mining Inc.", "region": null, "state": "British Columbia", "stock": "0.22 CDN", "symbol": "XIA" }, "geometry": { "type": "Point", "coordinates": [ -123.115131, 49.286164 ] } },
{ "type": "Feature", "properties": { "add": "888 Dunsmuir St, Vancouver, BC V6C 3K4", "city": "Vancouver", "country": "ca", "exchange": "TSX-Venture\/OTC\/FRA", "name": "Ximen Mining Corp.", "region": null, "state": "British Columbia", "stock": "0.41 CDN", "symbol": "XIM\/XXMMF\/1XMA" }, "geometry": { "type": "Point", "coordinates": [ -123.118347, 49.284543 ] } },
{ "type": "Feature", "properties": { "add": "139 Avenue Québec, Rouyn-Noranda, QC J9X 6M8", "city": "Rouyn-Noranda", "country": "ca", "exchange": "TSX-Venture\/Frankfurt", "name": "X-Terra Resources", "region": null, "state": "Quebec", "stock": "0.09 CDN", "symbol": "XTT\/XTR" }, "geometry": { "type": "Point", "coordinates": [ -79.029276, 48.239912 ] } },
{ "type": "Feature", "properties": { "add": "200 Bay St, Toronto, ON M5J 2J3", "city": "Toronto", "country": "ca", "exchange": "TSE\/NSYE", "name": "Yamana Gold Inc.", "region": null, "state": "Ontario", "stock": "5.78 CDN", "symbol": "YRI\/AUY " }, "geometry": { "type": "Point", "coordinates": [ -79.432474, 43.647232 ] } },
{ "type": "Feature", "properties": { "add": "110 Boulevard Crémazie O, Montréal, QC H2P 1B9", "city": "Montreal", "country": "cca", "exchange": "TSX-Venture", "name": "Yorbeau Resources Inc.", "region": null, "state": "Quebec", "stock": "0.04 CDN", "symbol": "YRB" }, "geometry": { "type": "Point", "coordinates": [ -73.642751, 45.540262 ] } },
{ "type": "Feature", "properties": { "add": "106 Strickland St, Whitehorse, YT Y1A 2J5", "city": "Whitehorse", "country": "ca", "exchange": "See Individual companies", "name": "Yukon Mining Alliance", "region": null, "state": "Yukon", "stock": null, "symbol": null }, "geometry": { "type": "Point", "coordinates": [ -135.054207, 60.723022 ] } },
{ "type": "Feature", "properties": { "add": "1205 Amber Drive, Thunder Bay, ON P7B 6M4", "city": "Thunder Bay", "country": "ca", "exchange": "TSX-Venture\/OTCQB", "name": "Zen Graphene Solutions", "region": null, "state": "Ontario", "stock": "0.52 CDN", "symbol": "ZEN\/ZENYF" }, "geometry": { "type": "Point", "coordinates": [ -89.262342, 48.409727 ] } },
{ "type": "Feature", "properties": { "add": "1959 Upper Water St, Halifax, NS B3J 3N2", "city": "Halifax", "country": "ca", "exchange": "TSX-Venture\/OTC", "name": "Zephyr Minerals Ltd.", "region": null, "state": "Nova Scotia", "stock": "0.25 CDN", "symbol": "ZFR\/ZPHYF" }, "geometry": { "type": "Point", "coordinates": [ -63.574183, 44.651743 ] } },
{ "type": "Feature", "properties": { "add": "789 West Pender St, Vancouver, BC V6C 1H2", "city": "Vancouver", "country": "ca", "exchange": "TSX-Venture\/FSE", "name": "Zimtu Capital Corp.", "region": null, "state": "British Columbia", "stock": "0.15 CDN", "symbol": "ZC\/ZCT1" }, "geometry": { "type": "Point", "coordinates": [ -123.115458, 49.285288 ] } },
{ "type": "Feature", "properties": { "add": "1040 West Georgia St, Vancouver, BC V6E 4H1", "city": "Vancouver", "country": "ca", "exchange": "TSX-Venture\/OTC\/FSE", "name": "Zinc One Resources Inc.", "region": null, "state": "British Columbia", "stock": "0.02 CDN", "symbol": " Z\/ZZZOF\/RH33" }, "geometry": { "type": "Point", "coordinates": [ -123.082129, 49.27799 ] } },
{ "type": "Feature", "properties": { "add": "1055 West Georgia St, Vancouver, BC V6E 3P3", "city": "Vancouver", "country": "ca", "exchange": "TSX-Venture", "name": "ZincX Resources Corp.", "region": null, "state": "British Columbia", "stock": "0.10 CDN", "symbol": "ZNX " }, "geometry": { "type": "Point", "coordinates": [ -123.120389, 49.2851711 ] } }
]
}
