{
"type": "FeatureCollection",
"features": [
{ "type": "Feature", "properties": { "proj": "Aurex-McQuesten gold project", "loc": "Mayo, Yukon", "country": "ca", "name": "Banyan Gold Corp.", "city": null, "region": null, "state": "Yukon" }, "geometry": { "type": "Point", "coordinates": [ -135.897375899999986, 63.5954596 ] } },
{ "type": "Feature", "properties": { "proj": "Fourmile Goldrush Camp", "loc": "Nevada", "country": "us", "name": "Barrick Gold Corporation", "city": null, "region": null, "state": "Nevada" }, "geometry": { "type": "Point", "coordinates": [ -116.8537227, 39.5158825 ] } },
{ "type": "Feature", "properties": { "proj": "Lawyers Au-Ag project", "loc": "Prince George, British Columbia", "country": "ca", "name": "Benchmark Metals Inc.", "city": "Prince George", "region": null, "state": "British Columbia" }, "geometry": { "type": "Point", "coordinates": [ -122.7453699, 53.9128645 ] } },
{ "type": "Feature", "properties": { "proj": "Oak Dam FeO-Cu-Au project", "loc": "Roxby Downs", "country": "au", "name": "BHP", "city": null, "region": null, "state": "South Australia" }, "geometry": { "type": "Point", "coordinates": [ 136.8816645, -30.5517551 ] } },
{ "type": "Feature", "properties": { "proj": "Boundary Zone Zn-Pb-Ag project", "loc": "Ross River, Yukon Territory", "country": "ca", "name": "Fireweed Zinc", "city": null, "region": null, "state": "Yukon" }, "geometry": { "type": "Point", "coordinates": [ -132.4494915, 61.9798045 ] } },
{ "type": "Feature", "properties": { "proj": "Janice Lake Cu-Ag project", "loc": "La Ronge, Saskatchewan", "country": "ca", "name": "Forum Energy Metals", "city": "La Ronge", "region": null, "state": "Saskatchewan" }, "geometry": { "type": "Point", "coordinates": [ -105.301208, 55.100373 ] } },
{ "type": "Feature", "properties": { "proj": "PAK Lithium project", "loc": "Red Lake, Ontario", "country": "ca", "name": "Frontier Lithium", "city": "Red Lake", "region": null, "state": "Ontario" }, "geometry": { "type": "Point", "coordinates": [ -93.827362, 51.018938 ] } },
{ "type": "Feature", "properties": { "proj": "Marathon palladium project", "loc": "Marathon, Ontario", "country": "ca", "name": "Generation Mining Limited", "city": "Marathon", "region": null, "state": "Ontario" }, "geometry": { "type": "Point", "coordinates": [ -86.3758954, 48.7162203 ] } },
{ "type": "Feature", "properties": { "proj": "The Crater Lake scandium-rare earth project", "loc": "Schefferville, Quebec", "country": "ca", "name": "Imperial Mining Group Ltd.", "city": "Schefferville", "region": "Côte-Nord", "state": "Quebec" }, "geometry": { "type": "Point", "coordinates": [ -66.820626, 54.8005133 ] } },
{ "type": "Feature", "properties": { "proj": "Camp Zone-Condor Au-Ag project", "loc": "Zamora, Chinchipe", "country": "ec", "name": "Luminex Resources", "city": null, "region": null, "state": "Zamora Chinchipe" }, "geometry": { "type": "Point", "coordinates": [ -79.1377246, -4.8536233 ] } },
{ "type": "Feature", "properties": { "proj": "Alamos silver project", "loc": "Alamos, Sonora", "country": "mx", "name": "Minaurum Gold Inc.", "city": null, "region": null, "state": "Sonora" }, "geometry": { "type": "Point", "coordinates": [ -108.9235232, 27.0828453 ] } },
{ "type": "Feature", "properties": { "proj": "Sakami gold project", "loc": "Wemindji, Quebec", "country": "ca", "name": "Quebec Precious Metals Corporation", "city": null, "region": "Nord-du-Québec", "state": "Quebec" }, "geometry": { "type": "Point", "coordinates": [ -78.7513534, 53.0227158 ] } },
{ "type": "Feature", "properties": { "proj": "O'Brien gold project", "loc": "Rouyn-Noranda (Cadillac), Quebec", "country": "ca", "name": "Radisson Mining Resources Inc.", "city": "Rouyn-Noranda", "region": null, "state": "Québec" }, "geometry": { "type": "Point", "coordinates": [ -79.02311, 48.23656 ] } },
{ "type": "Feature", "properties": { "proj": "AntaKori Cu-Au-Ag project", "loc": "Cajamarca, Hualgayoc", "country": "pe", "name": "Regulus Resources Inc.", "city": null, "region": null, "state": "Cajamarca" }, "geometry": { "type": "Point", "coordinates": [ -78.5314589, -6.7087189 ] } },
{ "type": "Feature", "properties": { "proj": "Klaza Au-Ag project", "loc": "Carmacks, Yukon", "country": "ca", "name": "Rockhaven Resources", "city": "Carmacks", "region": null, "state": "Yukon" }, "geometry": { "type": "Point", "coordinates": [ -136.2898984, 62.0887686 ] } },
{ "type": "Feature", "properties": { "proj": "Norman West Cu-Ni-PGE project", "loc": "Sudbury, Ontario", "country": "ca", "name": "Sudbury Integrated Nickel Operations", "city": "Sudbury", "region": null, "state": "Ontario" }, "geometry": { "type": "Point", "coordinates": [ -80.991211, 46.49272 ] } },
{ "type": "Feature", "properties": { "proj": "West Bear Co-Ni deposit", "loc": "Wollaston Lake, Saskatchewan", "country": "ca", "name": "UEX Corporation", "city": null, "region": null, "state": "Saskatchewan" }, "geometry": { "type": "Point", "coordinates": [ -103.2483734, 58.3317708 ] } },
{ "type": "Feature", "properties": { "proj": "Alconchel Cu-Au project", "loc": "Badajoz", "country": "es", "name": "Valoriza Mineria", "city": "Badajoz", "region": null, "state": "Extremadura" }, "geometry": { "type": "Point", "coordinates": [ -6.9702048, 38.8780585 ] } },
{ "type": "Feature", "properties": { "proj": "Goodfish Kirana gold property", "loc": "Kirkland Lake, Ontario", "country": "ca", "name": "Warrior Gold Inc.", "city": "Kirkland Lake", "region": null, "state": "Ontario" }, "geometry": { "type": "Point", "coordinates": [ -80.031281, 48.154177 ] } },
{ "type": "Feature", "properties": { "proj": "Shovelnose gold discovery", "loc": "Merritt, British Columbia", "country": "ca", "name": "Westhaven Ventures", "city": "Merritt", "region": null, "state": "British Columbia" }, "geometry": { "type": "Point", "coordinates": [ -120.7884227, 50.111704 ] } },
{ "type": "Feature", "properties": { "proj": "Perron gold project", "loc": "Normetal, Quebec", "country": "ca", "name": "Amex Exploration", "city": "Normétal", "region": "Abitibi-Témiscamingue", "state": "Quebec" }, "geometry": { "type": "Point", "coordinates": [ -79.362488, 48.996438 ] } },
{ "type": "Feature", "properties": { "proj": "Goldboro gold project", "loc": "Goldboro, Nova Scotia", "country": "ca", "name": "Anaconda Mining Inc.", "city": "Goldboro", "region": null, "state": "Nova Scotia" }, "geometry": { "type": "Point", "coordinates": [ -61.6523557, 45.1823896 ] } },
{ "type": "Feature", "properties": { "proj": "El Cobre Au-Cu Porphyry project", "loc": "Veracruz", "country": "mx", "name": "Azucar Minerals Ltd.", "city": null, "region": null, "state": "Veracruz" }, "geometry": { "type": "Point", "coordinates": [ -96.666667, 19.333333 ] } },
{ "type": "Feature", "properties": { "proj": "Grasset ultramafic complex Ni, Cu, Co, PGE property", "loc": "Matagami, Quebec", "country": "ca", "name": "Balmoral Resources Ltd.", "city": "Matagami", "region": "Nord-du-Québec", "state": "Quebec" }, "geometry": { "type": "Point", "coordinates": [ -77.6300251, 49.7575884 ] } },
{ "type": "Feature", "properties": { "proj": "South Mountain Zn, Ag, Au, Cu project", "loc": "Boise, Idaho", "country": "us", "name": "BeMetals Corp.", "city": "Boise", "region": null, "state": "Idaho" }, "geometry": { "type": "Point", "coordinates": [ -116.200886, 43.6166163 ] } },
{ "type": "Feature", "properties": { "proj": "Moroy gold project", "loc": "Desmaraisville, Quebec", "country": "ca", "name": "Bonterra Resources Inc.", "city": null, "region": "Nord-du-Québec", "state": "Quebec" }, "geometry": { "type": "Point", "coordinates": [ -76.1895705, 49.5069532 ] } },
{ "type": "Feature", "properties": { "proj": "Soledad Cu-Au-Ag project", "loc": "Aija, Aija Province", "country": "pe", "name": "Chakana Copper Corporation", "city": "Aija", "region": "Province of Aija", "state": "Ancash" }, "geometry": { "type": "Point", "coordinates": [ -77.6106401, -9.780218 ] } },
{ "type": "Feature", "properties": { "proj": "Wicheeda rare earth element project", "loc": "Prince George, British Columbia", "country": "ca", "name": "Defense Metals Corp", "city": "Prince George", "region": null, "state": "British Columbia" }, "geometry": { "type": "Point", "coordinates": [ -122.7453699, 53.9128645 ] } },
{ "type": "Feature", "properties": { "proj": "Corner Bay copper deposit", "loc": "Chibougamau, Quebec", "country": "ca", "name": "Dore Copper", "city": "Chibougamau", "region": "Nord-du-Québec", "state": "Quebec" }, "geometry": { "type": "Point", "coordinates": [ -74.3713954, 49.9137407 ] } },
{ "type": "Feature", "properties": { "proj": "Oko gold project", "loc": "Bartica, Cuyuni", "country": "gy", "name": "G2 Goldfields Inc.", "city": "Bartica", "region": null, "state": "Cuyuni-Mazaruni" }, "geometry": { "type": "Point", "coordinates": [ -58.6198247, 6.4058045 ] } },
{ "type": "Feature", "properties": { "proj": "Dixie gold project", "loc": "Red Lake, Ontario", "country": "ca", "name": "Great Bear Resources", "city": "Red Lake", "region": null, "state": "Ontario" }, "geometry": { "type": "Point", "coordinates": [ -93.827362, 51.018938 ] } },
{ "type": "Feature", "properties": { "proj": "Tatogga Au-Cu project", "loc": "Golden Triangle, British Columbia", "country": "ca", "name": "GT Gold", "city": "Whistler Resort Municipality", "region": null, "state": "British Columbia" }, "geometry": { "type": "Point", "coordinates": [ -122.9627486, 50.0991968 ] } },
{ "type": "Feature", "properties": { "proj": "Macassa gold project", "loc": "Kirkland Lake, Ontario", "country": "ca", "name": "Kirkland Lake Gold", "city": "Kirkland Lake", "region": null, "state": "Ontario" }, "geometry": { "type": "Point", "coordinates": [ -80.031281, 48.154177 ] } },
{ "type": "Feature", "properties": { "proj": "Black Pine gold project", "loc": "Cassia County, Idaho", "country": "us", "name": "Liberty Gold Corp.", "city": null, "region": null, "state": "Idaho" }, "geometry": { "type": "Point", "coordinates": [ -113.5777087, 42.2219306 ] } },
{ "type": "Feature", "properties": { "proj": "SPJ Au, Co, Cu, Ni property", "loc": "Sudbury, Ontario", "country": "ca", "name": "MacDonald Mines Exploration", "city": "Sudbury", "region": null, "state": "Ontario" }, "geometry": { "type": "Point", "coordinates": [ -80.991211, 46.49272 ] } },
{ "type": "Feature", "properties": { "proj": "Pamlico gold project", "loc": "Hawthorne, Nevada", "country": "us", "name": "Newrange Gold Corp.", "city": "Hawthorne", "region": null, "state": "Nevada" }, "geometry": { "type": "Point", "coordinates": [ -118.624578, 38.5246441 ] } },
{ "type": "Feature", "properties": { "proj": "Colomac gold project", "loc": "Yellowknife, Northwest Territories", "country": "ca", "name": "Nighthawk Gold", "city": "Yellowknife", "region": null, "state": "Northwest Territories" }, "geometry": { "type": "Point", "coordinates": [ -114.4467513, 62.4710386 ] } },
{ "type": "Feature", "properties": { "proj": "Kwanika Cu-Au project", "loc": "Fort St. James, British Columbia", "country": "ca", "name": "Serengeti Resources Inc.", "city": "Fort St. James", "region": null, "state": "British Columbia" }, "geometry": { "type": "Point", "coordinates": [ -124.2596983, 54.4446952 ] } },
{ "type": "Feature", "properties": { "proj": "Freegold Mountain Au, Ag, Cu, Mo project", "loc": "Carmacks, Yukon Territory", "country": "ca", "name": "Triumph Gold Corp.", "city": "Carmacks", "region": null, "state": "Yukon" }, "geometry": { "type": "Point", "coordinates": [ -136.2898984, 62.0887686 ] } },
{ "type": "Feature", "properties": { "proj": "San Francisco Au-Cu project", "loc": "Calingasta, San Juan", "country": "ar", "name": "Turmalina Metals", "city": null, "region": null, "state": "San Juan" }, "geometry": { "type": "Point", "coordinates": [ -69.8827279, -31.4476967 ] } }
]
}
